{"上海":{"ID":"161793","ParentID":"161792","Level":"1","AreaCode":"310100000000","ZipCode":"200000","CityCode":"021","Name":"直辖区","ShortName":"上海","MergerName":"上海","Pinyin":"ShangHai","Lng":"121.473701","Lat":"31.230416"},"上海,嘉定":{"ID":"164682","ParentID":"161793","Level":"2","AreaCode":"310114000000","ZipCode":"201800","CityCode":"021","Name":"嘉定区","ShortName":"嘉定","MergerName":"上海,嘉定","Pinyin":"JiaDing","Lng":"121.265300","Lat":"31.375602"},"上海,奉贤":{"ID":"167228","ParentID":"161793","Level":"2","AreaCode":"310120000000","ZipCode":"201400","CityCode":"021","Name":"奉贤区","ShortName":"奉贤","MergerName":"上海,奉贤","Pinyin":"FengXian","Lng":"121.474042","Lat":"30.917795"},"上海,宝山":{"ID":"164194","ParentID":"161793","Level":"2","AreaCode":"310113000000","ZipCode":"201900","CityCode":"021","Name":"宝山区","ShortName":"宝山","MergerName":"上海,宝山","Pinyin":"BaoShan","Lng":"121.489612","Lat":"31.405457"},"上海,崇明":{"ID":"167533","ParentID":"161793","Level":"2","AreaCode":"310151000000","ZipCode":"202150","CityCode":"021","Name":"崇明区","ShortName":"崇明","MergerName":"上海,崇明","Pinyin":"ChongMing","Lng":"121.473701","Lat":"31.230416"},"上海,徐汇":{"ID":"161988","ParentID":"161793","Level":"2","AreaCode":"310104000000","ZipCode":"200000","CityCode":"021","Name":"徐汇区","ShortName":"徐汇","MergerName":"上海,徐汇","Pinyin":"XuHui","Lng":"121.436525","Lat":"31.188523"},"上海,普陀":{"ID":"162794","ParentID":"161793","Level":"2","AreaCode":"310107000000","ZipCode":"200000","CityCode":"021","Name":"普陀区","ShortName":"普陀","MergerName":"上海,普陀","Pinyin":"PuTuo","Lng":"121.395555","Lat":"31.249840"},"上海,杨浦":{"ID":"163290","ParentID":"161793","Level":"2","AreaCode":"310110000000","ZipCode":"200000","CityCode":"021","Name":"杨浦区","ShortName":"杨浦","MergerName":"上海,杨浦","Pinyin":"YangPu","Lng":"121.526077","Lat":"31.259541"},"上海,松江":{"ID":"166585","ParentID":"161793","Level":"2","AreaCode":"310117000000","ZipCode":"201600","CityCode":"021","Name":"松江区","ShortName":"松江","MergerName":"上海,松江","Pinyin":"SongJiang","Lng":"121.227747","Lat":"31.032243"},"上海,浦东":{"ID":"165026","ParentID":"161793","Level":"2","AreaCode":"310115000000","ZipCode":"200120","CityCode":"021","Name":"浦东新区","ShortName":"浦东","MergerName":"上海,浦东","Pinyin":"PuDong","Lng":"121.544379","Lat":"31.221517"},"上海,虹口":{"ID":"163069","ParentID":"161793","Level":"2","AreaCode":"310109000000","ZipCode":"200000","CityCode":"021","Name":"虹口区","ShortName":"虹口","MergerName":"上海,虹口","Pinyin":"HongKou","Lng":"121.505133","Lat":"31.264600"},"上海,金山":{"ID":"166350","ParentID":"161793","Level":"2","AreaCode":"310116000000","ZipCode":"201500","CityCode":"021","Name":"金山区","ShortName":"金山","MergerName":"上海,金山","Pinyin":"JinShan","Lng":"121.341970","Lat":"30.741991"},"上海,长宁":{"ID":"162309","ParentID":"161793","Level":"2","AreaCode":"310105000000","ZipCode":"200000","CityCode":"021","Name":"长宁区","ShortName":"长宁","MergerName":"上海,长宁","Pinyin":"ChangNing","Lng":"121.424624","Lat":"31.220367"},"上海,闵行":{"ID":"163621","ParentID":"161793","Level":"2","AreaCode":"310112000000","ZipCode":"201100","CityCode":"021","Name":"闵行区","ShortName":"闵行","MergerName":"上海,闵行","Pinyin":"MinXing","Lng":"121.381709","Lat":"31.112813"},"上海,青浦":{"ID":"166927","ParentID":"161793","Level":"2","AreaCode":"310118000000","ZipCode":"201700","CityCode":"021","Name":"青浦区","ShortName":"青浦","MergerName":"上海,青浦","Pinyin":"QingPu","Lng":"121.124178","Lat":"31.150681"},"上海,静安":{"ID":"162505","ParentID":"161793","Level":"2","AreaCode":"310106000000","ZipCode":"200000","CityCode":"021","Name":"静安区","ShortName":"静安","MergerName":"上海,静安","Pinyin":"JingAn","Lng":"121.459384","Lat":"31.247105"},"上海,黄浦":{"ID":"161794","ParentID":"161793","Level":"2","AreaCode":"310101000000","ZipCode":"200000","CityCode":"021","Name":"黄浦区","ShortName":"黄浦","MergerName":"上海,黄浦","Pinyin":"HuangPu","Lng":"121.484443","Lat":"31.231763"},"云南":{"ID":"624372","ParentID":"0","Level":"0","AreaCode":"530000000000","ZipCode":"000000","CityCode":"","Name":"云南省","ShortName":"云南","MergerName":"云南","Pinyin":"YunNan","Lng":"102.710002","Lat":"25.045806"},"云南,临沧":{"ID":"632972","ParentID":"632971","Level":"2","AreaCode":"530901000000","ZipCode":"677000","CityCode":"0883","Name":"市辖区","ShortName":"临沧","MergerName":"云南,临沧","Pinyin":"LinCang","Lng":"100.079583","Lat":"23.877573"},"云南,丽江":{"ID":"631277","ParentID":"631276","Level":"2","AreaCode":"530701000000","ZipCode":"674100","CityCode":"0888","Name":"市辖区","ShortName":"丽江","MergerName":"云南,丽江","Pinyin":"LiJiang","Lng":"100.227750","Lat":"26.855047"},"云南,保山":{"ID":"628777","ParentID":"628776","Level":"2","AreaCode":"530501000000","ZipCode":"678000","CityCode":"0875","Name":"市辖区","ShortName":"保山","MergerName":"云南,保山","Pinyin":"BaoShan","Lng":"99.161761","Lat":"25.112046"},"云南,大理":{"ID":"638092","ParentID":"624372","Level":"1","AreaCode":"532900000000","ZipCode":"671000","CityCode":"0872","Name":"大理白族自治州","ShortName":"大理","MergerName":"云南,大理","Pinyin":"DaLi","Lng":"100.267639","Lat":"25.606485"},"云南,德宏":{"ID":"639368","ParentID":"624372","Level":"1","AreaCode":"533100000000","ZipCode":"678400","CityCode":"0692","Name":"德宏傣族景颇族自治州","ShortName":"德宏","MergerName":"云南,德宏","Pinyin":"DeHong","Lng":"98.584895","Lat":"24.433353"},"云南,怒江":{"ID":"639802","ParentID":"624372","Level":"1","AreaCode":"533300000000","ZipCode":"673100","CityCode":"0886","Name":"怒江傈僳族自治州","ShortName":"怒江","MergerName":"云南,怒江","Pinyin":"NuJiang","Lng":"98.853097","Lat":"25.852547"},"云南,文山":{"ID":"636688","ParentID":"624372","Level":"1","AreaCode":"532600000000","ZipCode":"663000","CityCode":"0876","Name":"文山壮族苗族自治州","ShortName":"文山","MergerName":"云南,文山","Pinyin":"WenShan","Lng":"104.216248","Lat":"23.400734"},"云南,昆明":{"ID":"624374","ParentID":"624373","Level":"2","AreaCode":"530101000000","ZipCode":"650000","CityCode":"0871","Name":"市辖区","ShortName":"昆明","MergerName":"云南,昆明","Pinyin":"KunMing","Lng":"102.832891","Lat":"24.880095"},"云南,昭通":{"ID":"629782","ParentID":"629781","Level":"2","AreaCode":"530601000000","ZipCode":"657000","CityCode":"0870","Name":"市辖区","ShortName":"昭通","MergerName":"云南,昭通","Pinyin":"ZhaoTong","Lng":"103.717465","Lat":"27.338257"},"云南,普洱":{"ID":"631812","ParentID":"631811","Level":"2","AreaCode":"530801000000","ZipCode":"665000","CityCode":"0879","Name":"市辖区","ShortName":"普洱","MergerName":"云南,普洱","Pinyin":"PuEr","Lng":"100.966512","Lat":"22.825065"},"云南,曲靖":{"ID":"626182","ParentID":"626181","Level":"2","AreaCode":"530301000000","ZipCode":"655000","CityCode":"0874","Name":"市辖区","ShortName":"曲靖","MergerName":"云南,曲靖","Pinyin":"QuJing","Lng":"103.796167","Lat":"25.489999"},"云南,楚雄":{"ID":"634006","ParentID":"624372","Level":"1","AreaCode":"532300000000","ZipCode":"675000","CityCode":"0878","Name":"楚雄彝族自治州","ShortName":"楚雄","MergerName":"云南,楚雄","Pinyin":"ChuXiong","Lng":"101.528069","Lat":"25.045532"},"云南,玉溪":{"ID":"627982","ParentID":"627981","Level":"2","AreaCode":"530401000000","ZipCode":"653100","CityCode":"0877","Name":"市辖区","ShortName":"玉溪","MergerName":"云南,玉溪","Pinyin":"YuXi","Lng":"102.546543","Lat":"24.352036"},"云南,红河":{"ID":"635219","ParentID":"624372","Level":"1","AreaCode":"532500000000","ZipCode":"661400","CityCode":"0873","Name":"红河哈尼族彝族自治州","ShortName":"红河","MergerName":"云南,红河","Pinyin":"HongHe","Lng":"103.374799","Lat":"23.363130"},"云南,西双版纳":{"ID":"637778","ParentID":"624372","Level":"1","AreaCode":"532800000000","ZipCode":"666100","CityCode":"0691","Name":"西双版纳傣族自治州","ShortName":"西双版纳","MergerName":"云南,西双版纳","Pinyin":"XiShuangBanNa","Lng":"100.797777","Lat":"22.007351"},"云南,迪庆":{"ID":"640107","ParentID":"624372","Level":"1","AreaCode":"533400000000","ZipCode":"674400","CityCode":"0887","Name":"迪庆藏族自治州","ShortName":"迪庆","MergerName":"云南,迪庆","Pinyin":"DiQing","Lng":"99.702234","Lat":"27.818882"},"内蒙古":{"ID":"99537","ParentID":"0","Level":"0","AreaCode":"150000000000","ZipCode":"000000","CityCode":"","Name":"内蒙古自治区","ShortName":"内蒙古","MergerName":"内蒙古","Pinyin":"NeiMengGu","Lng":"111.765617","Lat":"40.817498"},"内蒙古,乌兰察布":{"ID":"110890","ParentID":"110889","Level":"2","AreaCode":"150901000000","ZipCode":"012000","CityCode":"0474","Name":"市辖区","ShortName":"乌兰察布","MergerName":"内蒙古,乌兰察布","Pinyin":"WuLanChaBu","Lng":"113.132585","Lat":"40.994785"},"内蒙古,乌海":{"ID":"101773","ParentID":"101772","Level":"2","AreaCode":"150301000000","ZipCode":"016000","CityCode":"0473","Name":"市辖区","ShortName":"乌海","MergerName":"内蒙古,乌海","Pinyin":"WuHai","Lng":"106.794249","Lat":"39.655388"},"内蒙古,兴安":{"ID":"112552","ParentID":"99537","Level":"1","AreaCode":"152200000000","ZipCode":"010010","CityCode":"0482","Name":"兴安盟","ShortName":"兴安","MergerName":"内蒙古,兴安","Pinyin":"XingAn","Lng":"122.067042","Lat":"46.077561"},"内蒙古,包头":{"ID":"100905","ParentID":"100904","Level":"2","AreaCode":"150201000000","ZipCode":"014000","CityCode":"0472","Name":"市辖区","ShortName":"包头","MergerName":"内蒙古,包头","Pinyin":"BaoTou","Lng":"109.840347","Lat":"40.657449"},"内蒙古,呼伦贝尔":{"ID":"108167","ParentID":"108166","Level":"2","AreaCode":"150701000000","ZipCode":"021000","CityCode":"0470","Name":"市辖区","ShortName":"呼伦贝尔","MergerName":"内蒙古,呼伦贝尔","Pinyin":"HuLunBeiEr","Lng":"119.765744","Lat":"49.211574"},"内蒙古,呼和浩特":{"ID":"99539","ParentID":"99538","Level":"2","AreaCode":"150101000000","ZipCode":"010000","CityCode":"0471","Name":"市辖区","ShortName":"呼和浩特","MergerName":"内蒙古,呼和浩特","Pinyin":"HuHeHaoTe","Lng":"111.749180","Lat":"40.842585"},"内蒙古,巴彦淖尔":{"ID":"109848","ParentID":"109847","Level":"2","AreaCode":"150801000000","ZipCode":"015000","CityCode":"0478","Name":"市辖区","ShortName":"巴彦淖尔","MergerName":"内蒙古,巴彦淖尔","Pinyin":"BaYanNaoEr","Lng":"107.387657","Lat":"40.743213"},"内蒙古,赤峰":{"ID":"101885","ParentID":"101884","Level":"2","AreaCode":"150401000000","ZipCode":"024000","CityCode":"0476","Name":"市辖区","ShortName":"赤峰","MergerName":"内蒙古,赤峰","Pinyin":"ChiFeng","Lng":"118.886856","Lat":"42.257817"},"内蒙古,通辽":{"ID":"104458","ParentID":"104457","Level":"2","AreaCode":"150501000000","ZipCode":"028000","CityCode":"0475","Name":"市辖区","ShortName":"通辽","MergerName":"内蒙古,通辽","Pinyin":"TongLiao","Lng":"122.243444","Lat":"43.652890"},"内蒙古,鄂尔多斯":{"ID":"107066","ParentID":"107065","Level":"2","AreaCode":"150601000000","ZipCode":"017000","CityCode":"0477","Name":"市辖区","ShortName":"鄂尔多斯","MergerName":"内蒙古,鄂尔多斯","Pinyin":"EErDuoSi","Lng":"109.781327","Lat":"39.608266"},"内蒙古,锡林郭勒":{"ID":"113777","ParentID":"99537","Level":"1","AreaCode":"152500000000","ZipCode":"026000","CityCode":"0479","Name":"锡林郭勒盟","ShortName":"锡林郭勒","MergerName":"内蒙古,锡林郭勒","Pinyin":"XiLinGuoLe","Lng":"116.048222","Lat":"43.933454"},"内蒙古,阿拉善":{"ID":"114940","ParentID":"99537","Level":"1","AreaCode":"152900000000","ZipCode":"750306","CityCode":"0483","Name":"阿拉善盟","ShortName":"阿拉善","MergerName":"内蒙古,阿拉善","Pinyin":"ALaShan","Lng":"105.728969","Lat":"38.851892"},"北京":{"ID":"2","ParentID":"1","Level":"1","AreaCode":"110100000000","ZipCode":"100000","CityCode":"010","Name":"直辖区","ShortName":"北京","MergerName":"北京","Pinyin":"BeiJing","Lng":"116.407526","Lat":"39.904030"},"北京,东城":{"ID":"3","ParentID":"2","Level":"2","AreaCode":"110101000000","ZipCode":"100000","CityCode":"010","Name":"东城区","ShortName":"东城","MergerName":"北京,东城","Pinyin":"DongCheng","Lng":"116.416357","Lat":"39.928353"},"北京,丰台":{"ID":"1122","ParentID":"2","Level":"2","AreaCode":"110106000000","ZipCode":"100000","CityCode":"010","Name":"丰台区","ShortName":"丰台","MergerName":"北京,丰台","Pinyin":"FengTai","Lng":"116.287149","Lat":"39.858427"},"北京,大兴":{"ID":"5042","ParentID":"2","Level":"2","AreaCode":"110115000000","ZipCode":"102600","CityCode":"010","Name":"大兴区","ShortName":"大兴","MergerName":"北京,大兴","Pinyin":"DaXing","Lng":"116.341395","Lat":"39.726929"},"北京,密云":{"ID":"6466","ParentID":"2","Level":"2","AreaCode":"110118000000","ZipCode":"101599","CityCode":"010","Name":"密云区","ShortName":"密云","MergerName":"北京,密云","Pinyin":"MiYun","Lng":"116.843177","Lat":"40.376834"},"北京,平谷":{"ID":"6138","ParentID":"2","Level":"2","AreaCode":"110117000000","ZipCode":"101200","CityCode":"010","Name":"平谷区","ShortName":"平谷","MergerName":"北京,平谷","Pinyin":"PingGu","Lng":"117.121383","Lat":"40.140701"},"北京,延庆":{"ID":"6921","ParentID":"2","Level":"2","AreaCode":"110119000000","ZipCode":"100062","CityCode":"010","Name":"延庆区","ShortName":"延庆","MergerName":"北京,延庆","Pinyin":"YanQing","Lng":"115.974848","Lat":"40.456951"},"北京,怀柔":{"ID":"5800","ParentID":"2","Level":"2","AreaCode":"110116000000","ZipCode":"101400","CityCode":"010","Name":"怀柔区","ShortName":"怀柔","MergerName":"北京,怀柔","Pinyin":"HuaiRou","Lng":"116.642349","Lat":"40.315704"},"北京,房山":{"ID":"2689","ParentID":"2","Level":"2","AreaCode":"110111000000","ZipCode":"102400","CityCode":"010","Name":"房山区","ShortName":"房山","MergerName":"北京,房山","Pinyin":"FangShan","Lng":"116.143267","Lat":"39.749144"},"北京,昌平":{"ID":"4498","ParentID":"2","Level":"2","AreaCode":"110114000000","ZipCode":"102200","CityCode":"010","Name":"昌平区","ShortName":"昌平","MergerName":"北京,昌平","Pinyin":"ChangPing","Lng":"116.231204","Lat":"40.220660"},"北京,朝阳":{"ID":"480","ParentID":"2","Level":"2","AreaCode":"110105000000","ZipCode":"100000","CityCode":"010","Name":"朝阳区","ShortName":"朝阳","MergerName":"北京,朝阳","Pinyin":"ZhaoYang","Lng":"116.443108","Lat":"39.921470"},"北京,海淀":{"ID":"1692","ParentID":"2","Level":"2","AreaCode":"110108000000","ZipCode":"100000","CityCode":"010","Name":"海淀区","ShortName":"海淀","MergerName":"北京,海淀","Pinyin":"HaiDian","Lng":"116.298056","Lat":"39.959912"},"北京,石景山":{"ID":"1533","ParentID":"2","Level":"2","AreaCode":"110107000000","ZipCode":"100000","CityCode":"010","Name":"石景山区","ShortName":"石景山","MergerName":"北京,石景山","Pinyin":"ShiJingShan","Lng":"116.222982","Lat":"39.906611"},"北京,西城":{"ID":"203","ParentID":"2","Level":"2","AreaCode":"110102000000","ZipCode":"100000","CityCode":"010","Name":"西城区","ShortName":"西城","MergerName":"北京,西城","Pinyin":"XiCheng","Lng":"116.365868","Lat":"39.912289"},"北京,通州":{"ID":"3324","ParentID":"2","Level":"2","AreaCode":"110112000000","ZipCode":"101100","CityCode":"010","Name":"通州区","ShortName":"通州","MergerName":"北京,通州","Pinyin":"TongZhou","Lng":"116.656435","Lat":"39.909946"},"北京,门头沟":{"ID":"2376","ParentID":"2","Level":"2","AreaCode":"110109000000","ZipCode":"102300","CityCode":"010","Name":"门头沟区","ShortName":"门头沟","MergerName":"北京,门头沟","Pinyin":"MenTouGou","Lng":"116.102009","Lat":"39.940646"},"北京,顺义":{"ID":"3927","ParentID":"2","Level":"2","AreaCode":"110113000000","ZipCode":"101300","CityCode":"010","Name":"顺义区","ShortName":"顺义","MergerName":"北京,顺义","Pinyin":"ShunYi","Lng":"116.654651","Lat":"40.130347"},"台湾":{"ID":"714401","ParentID":"0","Level":"0","AreaCode":"0","ZipCode":"000000","CityCode":"","Name":"台湾","ShortName":"台湾","MergerName":"台湾","Pinyin":"Taiwan","Lng":"121.509062","Lat":"25.044332"},"台湾,南投":{"ID":"736051","ParentID":"714401","Level":"1","AreaCode":"0","ZipCode":"000000","CityCode":"049","Name":"南投县","ShortName":"南投","MergerName":"台湾,南投","Pinyin":"Nantou County","Lng":"120.830000","Lat":"23.830000"},"台湾,南海岛":{"ID":"737856","ParentID":"714401","Level":"1","AreaCode":"0","ZipCode":"000000","CityCode":"","Name":"南海岛","ShortName":"南海岛","MergerName":"台湾,南海岛","Pinyin":"Nanhai Islands","Lng":"0.000000","Lat":"0.000000"},"台湾,宜兰":{"ID":"734179","ParentID":"714401","Level":"1","AreaCode":"0","ZipCode":"000000","CityCode":"03","Name":"宜兰县","ShortName":"宜兰","MergerName":"台湾,宜兰","Pinyin":"Yilan County","Lng":"121.500000","Lat":"24.600000"},"台湾,屏东":{"ID":"720118","ParentID":"714401","Level":"1","AreaCode":"0","ZipCode":"000000","CityCode":"08","Name":"屏东县","ShortName":"屏东","MergerName":"台湾,屏东","Pinyin":"Pingtung County","Lng":"120.487928","Lat":"22.682802"},"台湾,彰化":{"ID":"714402","ParentID":"714401","Level":"1","AreaCode":"0","ZipCode":"000000","CityCode":"04","Name":"彰化县","ShortName":"彰化","MergerName":"台湾,彰化","Pinyin":"Changhua County","Lng":"120.416000","Lat":"24.000000"},"台湾,新北":{"ID":"717531","ParentID":"714401","Level":"1","AreaCode":"0","ZipCode":"000000","CityCode":"02","Name":"新北市","ShortName":"新北","MergerName":"台湾,新北","Pinyin":"New Taipei City","Lng":"121.465746","Lat":"25.012366"},"台湾,桃园":{"ID":"730843","ParentID":"714401","Level":"1","AreaCode":"0","ZipCode":"000000","CityCode":"03","Name":"桃园市","ShortName":"桃园","MergerName":"台湾,桃园","Pinyin":"Taoyuan City","Lng":"121.083000","Lat":"25.000000"},"台湾,澎湖":{"ID":"719868","ParentID":"714401","Level":"1","AreaCode":"0","ZipCode":"000000","CityCode":"06","Name":"澎湖县","ShortName":"澎湖","MergerName":"台湾,澎湖","Pinyin":"Penghu County","Lng":"119.566417","Lat":"23.569733"},"台湾,臺东":{"ID":"729928","ParentID":"714401","Level":"1","AreaCode":"0","ZipCode":"000000","CityCode":"","Name":"臺东县","ShortName":"臺东","MergerName":"台湾,臺东","Pinyin":"Taitung County","Lng":"0.000000","Lat":"0.000000"},"台湾,臺中":{"ID":"722024","ParentID":"714401","Level":"1","AreaCode":"0","ZipCode":"000000","CityCode":"","Name":"臺中市","ShortName":"臺中","MergerName":"台湾,臺中","Pinyin":"Taichung City","Lng":"0.000000","Lat":"0.000000"},"台湾,臺北":{"ID":"727730","ParentID":"714401","Level":"1","AreaCode":"0","ZipCode":"000000","CityCode":"","Name":"臺北市","ShortName":"臺北","MergerName":"台湾,臺北","Pinyin":"Taipei City","Lng":"121.517057","Lat":"25.048074"},"台湾,臺南":{"ID":"725488","ParentID":"714401","Level":"1","AreaCode":"0","ZipCode":"000000","CityCode":"","Name":"臺南市","ShortName":"臺南","MergerName":"台湾,臺南","Pinyin":"Tainan City","Lng":"0.000000","Lat":"0.000000"},"台湾,苗栗":{"ID":"737861","ParentID":"714401","Level":"1","AreaCode":"0","ZipCode":"000000","CityCode":"037","Name":"苗栗县","ShortName":"苗栗","MergerName":"台湾,苗栗","Pinyin":"Miaoli County","Lng":"120.818985","Lat":"24.561601"},"吉林":{"ID":"133208","ParentID":"0","Level":"0","AreaCode":"220000000000","ZipCode":"000000","CityCode":"","Name":"吉林省","ShortName":"吉林","MergerName":"吉林","Pinyin":"JiLin","Lng":"125.325990","Lat":"43.896536"},"吉林,吉林":{"ID":"135393","ParentID":"135392","Level":"2","AreaCode":"220201000000","ZipCode":"132000","CityCode":"","Name":"市辖区","ShortName":"吉林","MergerName":"吉林,吉林","Pinyin":"JiLin","Lng":"0.000000","Lat":"0.000000"},"吉林,四平":{"ID":"137207","ParentID":"137206","Level":"2","AreaCode":"220301000000","ZipCode":"136000","CityCode":"0434","Name":"市辖区","ShortName":"四平","MergerName":"吉林,四平","Pinyin":"SiPing","Lng":"124.350398","Lat":"43.166419"},"吉林,延边":{"ID":"143990","ParentID":"133208","Level":"1","AreaCode":"222400000000","ZipCode":"133000","CityCode":"1433","Name":"延边朝鲜族自治州","ShortName":"延边","MergerName":"吉林,延边","Pinyin":"YanBian","Lng":"129.508946","Lat":"42.891253"},"吉林,松原":{"ID":"141362","ParentID":"141361","Level":"2","AreaCode":"220701000000","ZipCode":"138000","CityCode":"0438","Name":"市辖区","ShortName":"松原","MergerName":"吉林,松原","Pinyin":"SongYuan","Lng":"124.825117","Lat":"45.141789"},"吉林,白城":{"ID":"142787","ParentID":"142786","Level":"2","AreaCode":"220801000000","ZipCode":"137000","CityCode":"0436","Name":"市辖区","ShortName":"白城","MergerName":"吉林,白城","Pinyin":"BaiCheng","Lng":"122.839024","Lat":"45.619641"},"吉林,白山":{"ID":"140602","ParentID":"140601","Level":"2","AreaCode":"220601000000","ZipCode":"134300","CityCode":"0439","Name":"市辖区","ShortName":"白山","MergerName":"吉林,白山","Pinyin":"BaiShan","Lng":"126.423587","Lat":"41.939994"},"吉林,辽源":{"ID":"138722","ParentID":"138721","Level":"2","AreaCode":"220401000000","ZipCode":"136200","CityCode":"0437","Name":"市辖区","ShortName":"辽源","MergerName":"吉林,辽源","Pinyin":"LiaoYuan","Lng":"125.143532","Lat":"42.887918"},"吉林,通化":{"ID":"139341","ParentID":"139340","Level":"2","AreaCode":"220501000000","ZipCode":"134000","CityCode":"0435","Name":"市辖区","ShortName":"通化","MergerName":"吉林,通化","Pinyin":"TongHua","Lng":"125.939697","Lat":"41.728401"},"吉林,长春":{"ID":"133210","ParentID":"133209","Level":"2","AreaCode":"220101000000","ZipCode":"130000","CityCode":"0431","Name":"市辖区","ShortName":"长春","MergerName":"吉林,长春","Pinyin":"ChangChun","Lng":"125.323544","Lat":"43.817071"},"四川":{"ID":"545532","ParentID":"0","Level":"0","AreaCode":"510000000000","ZipCode":"000000","CityCode":"","Name":"四川省","ShortName":"四川","MergerName":"四川","Pinyin":"SiChuan","Lng":"104.075931","Lat":"30.651651"},"四川,乐山":{"ID":"568203","ParentID":"568202","Level":"2","AreaCode":"511101000000","ZipCode":"614000","CityCode":"0833","Name":"市辖区","ShortName":"乐山","MergerName":"四川,乐山","Pinyin":"LeShan","Lng":"103.765568","Lat":"29.552106"},"四川,内江":{"ID":"565736","ParentID":"565735","Level":"2","AreaCode":"511001000000","ZipCode":"641000","CityCode":"1832","Name":"市辖区","ShortName":"内江","MergerName":"四川,内江","Pinyin":"NeiJiang","Lng":"105.058433","Lat":"29.580228"},"四川,凉山":{"ID":"599659","ParentID":"545532","Level":"1","AreaCode":"513400000000","ZipCode":"615000","CityCode":"0834","Name":"凉山彝族自治州","ShortName":"凉山","MergerName":"四川,凉山","Pinyin":"LiangShan","Lng":"102.267335","Lat":"27.881610"},"四川,南充":{"ID":"570734","ParentID":"570733","Level":"2","AreaCode":"511301000000","ZipCode":"637000","CityCode":"0817","Name":"市辖区","ShortName":"南充","MergerName":"四川,南充","Pinyin":"NanChong","Lng":"106.110698","Lat":"30.837793"},"四川,宜宾":{"ID":"578486","ParentID":"578485","Level":"2","AreaCode":"511501000000","ZipCode":"644000","CityCode":"0831","Name":"市辖区","ShortName":"宜宾","MergerName":"四川,宜宾","Pinyin":"YiBin","Lng":"104.643215","Lat":"28.751768"},"四川,巴中":{"ID":"589780","ParentID":"589779","Level":"2","AreaCode":"511901000000","ZipCode":"636600","CityCode":"0827","Name":"市辖区","ShortName":"巴中","MergerName":"四川,巴中","Pinyin":"BaZhong","Lng":"106.747477","Lat":"31.867903"},"四川,广元":{"ID":"560192","ParentID":"560191","Level":"2","AreaCode":"510801000000","ZipCode":"628000","CityCode":"0839","Name":"市辖区","ShortName":"广元","MergerName":"四川,广元","Pinyin":"GuangYuan","Lng":"105.843357","Lat":"32.435435"},"四川,广安":{"ID":"581871","ParentID":"581870","Level":"2","AreaCode":"511601000000","ZipCode":"638500","CityCode":"0826","Name":"市辖区","ShortName":"广安","MergerName":"四川,广安","Pinyin":"GuangAn","Lng":"106.633212","Lat":"30.455961"},"四川,德阳":{"ID":"554143","ParentID":"554142","Level":"2","AreaCode":"510601000000","ZipCode":"618000","CityCode":"0838","Name":"市辖区","ShortName":"德阳","MergerName":"四川,德阳","Pinyin":"DeYang","Lng":"104.397894","Lat":"31.126855"},"四川,成都":{"ID":"545534","ParentID":"545533","Level":"2","AreaCode":"510101000000","ZipCode":"610000","CityCode":"028","Name":"市辖区","ShortName":"成都","MergerName":"四川,成都","Pinyin":"ChengDu","Lng":"104.066541","Lat":"30.572269"},"四川,攀枝花":{"ID":"551810","ParentID":"551809","Level":"2","AreaCode":"510401000000","ZipCode":"617000","CityCode":"0812","Name":"市辖区","ShortName":"攀枝花","MergerName":"四川,攀枝花","Pinyin":"PanZhiHua","Lng":"101.718637","Lat":"26.582347"},"四川,泸州":{"ID":"552359","ParentID":"552358","Level":"2","AreaCode":"510501000000","ZipCode":"646000","CityCode":"0830","Name":"市辖区","ShortName":"泸州","MergerName":"四川,泸州","Pinyin":"LuZhou","Lng":"105.442258","Lat":"28.871810"},"四川,甘孜":{"ID":"596525","ParentID":"545532","Level":"1","AreaCode":"513300000000","ZipCode":"626000","CityCode":"0836","Name":"甘孜藏族自治州","ShortName":"甘孜","MergerName":"四川,甘孜","Pinyin":"GanZi","Lng":"101.962310","Lat":"30.049520"},"四川,眉山":{"ID":"576993","ParentID":"576992","Level":"2","AreaCode":"511401000000","ZipCode":"620000","CityCode":"1833","Name":"市辖区","ShortName":"眉山","MergerName":"四川,眉山","Pinyin":"MeiShan","Lng":"103.848538","Lat":"30.075439"},"四川,绵阳":{"ID":"556078","ParentID":"556077","Level":"2","AreaCode":"510701000000","ZipCode":"621000","CityCode":"0816","Name":"市辖区","ShortName":"绵阳","MergerName":"四川,绵阳","Pinyin":"MianYang","Lng":"104.679114","Lat":"31.467450"},"四川,自贡":{"ID":"550276","ParentID":"550275","Level":"2","AreaCode":"510301000000","ZipCode":"643000","CityCode":"0813","Name":"市辖区","ShortName":"自贡","MergerName":"四川,自贡","Pinyin":"ZiGong","Lng":"104.778442","Lat":"29.339030"},"四川,资阳":{"ID":"592599","ParentID":"592598","Level":"2","AreaCode":"512001000000","ZipCode":"641300","CityCode":"0832","Name":"市辖区","ShortName":"资阳","MergerName":"四川,资阳","Pinyin":"ZiYang","Lng":"104.627636","Lat":"30.128901"},"四川,达州":{"ID":"585050","ParentID":"585049","Level":"2","AreaCode":"511701000000","ZipCode":"635000","CityCode":"0818","Name":"市辖区","ShortName":"达州","MergerName":"四川,达州","Pinyin":"DaZhou","Lng":"107.468023","Lat":"31.209571"},"四川,遂宁":{"ID":"563243","ParentID":"563242","Level":"2","AreaCode":"510901000000","ZipCode":"629000","CityCode":"0825","Name":"市辖区","ShortName":"遂宁","MergerName":"四川,遂宁","Pinyin":"SuiNing","Lng":"105.592898","Lat":"30.532847"},"四川,阿坝":{"ID":"594864","ParentID":"545532","Level":"1","AreaCode":"513200000000","ZipCode":"624000","CityCode":"0837","Name":"阿坝藏族羌族自治州","ShortName":"阿坝","MergerName":"四川,阿坝","Pinyin":"ABa","Lng":"102.224653","Lat":"31.899413"},"四川,雅安":{"ID":"588539","ParentID":"588538","Level":"2","AreaCode":"511801000000","ZipCode":"625000","CityCode":"0835","Name":"市辖区","ShortName":"雅安","MergerName":"四川,雅安","Pinyin":"YaAn","Lng":"103.013261","Lat":"29.980537"},"天津":{"ID":"7363","ParentID":"7362","Level":"1","AreaCode":"120100000000","ZipCode":"300000","CityCode":"022","Name":"直辖区","ShortName":"天津","MergerName":"天津","Pinyin":"TianJin","Lng":"117.200983","Lat":"39.084158"},"天津,东丽":{"ID":"8298","ParentID":"7363","Level":"2","AreaCode":"120110000000","ZipCode":"300000","CityCode":"022","Name":"东丽区","ShortName":"东丽","MergerName":"天津,东丽","Pinyin":"DongLi","Lng":"117.314324","Lat":"39.086569"},"天津,北辰":{"ID":"9102","ParentID":"7363","Level":"2","AreaCode":"120113000000","ZipCode":"300000","CityCode":"022","Name":"北辰区","ShortName":"北辰","MergerName":"天津,北辰","Pinyin":"BeiChen","Lng":"117.135488","Lat":"39.224792"},"天津,南开":{"ID":"7763","ParentID":"7363","Level":"2","AreaCode":"120104000000","ZipCode":"300000","CityCode":"022","Name":"南开区","ShortName":"南开","MergerName":"天津,南开","Pinyin":"NanKai","Lng":"117.150738","Lat":"39.138203"},"天津,和平":{"ID":"7364","ParentID":"7363","Level":"2","AreaCode":"120101000000","ZipCode":"300000","CityCode":"022","Name":"和平区","ShortName":"和平","MergerName":"天津,和平","Pinyin":"HePing","Lng":"117.214510","Lat":"39.116949"},"天津,宁河":{"ID":"11454","ParentID":"7363","Level":"2","AreaCode":"120117000000","ZipCode":"301599","CityCode":"022","Name":"宁河区","ShortName":"宁河","MergerName":"天津,宁河","Pinyin":"NingHe","Lng":"117.826625","Lat":"39.329858"},"天津,宝坻":{"ID":"10143","ParentID":"7363","Level":"2","AreaCode":"120115000000","ZipCode":"301800","CityCode":"022","Name":"宝坻区","ShortName":"宝坻","MergerName":"天津,宝坻","Pinyin":"BaoDi","Lng":"117.309863","Lat":"39.717379"},"天津,武清":{"ID":"9378","ParentID":"7363","Level":"2","AreaCode":"120114000000","ZipCode":"301700","CityCode":"022","Name":"武清区","ShortName":"武清","MergerName":"天津,武清","Pinyin":"WuQing","Lng":"117.044388","Lat":"39.384119"},"天津,河东":{"ID":"7434","ParentID":"7363","Level":"2","AreaCode":"120102000000","ZipCode":"300000","CityCode":"022","Name":"河东区","ShortName":"河东","MergerName":"天津,河东","Pinyin":"HeDong","Lng":"117.251587","Lat":"39.128291"},"天津,河北":{"ID":"7954","ParentID":"7363","Level":"2","AreaCode":"120105000000","ZipCode":"300000","CityCode":"022","Name":"河北区","ShortName":"河北","MergerName":"天津,河北","Pinyin":"HeBei","Lng":"117.200983","Lat":"39.084158"},"天津,河西":{"ID":"7607","ParentID":"7363","Level":"2","AreaCode":"120103000000","ZipCode":"300000","CityCode":"022","Name":"河西区","ShortName":"河西","MergerName":"天津,河西","Pinyin":"HeXi","Lng":"117.223372","Lat":"39.109563"},"天津,津南":{"ID":"8835","ParentID":"7363","Level":"2","AreaCode":"120112000000","ZipCode":"300000","CityCode":"022","Name":"津南区","ShortName":"津南","MergerName":"天津,津南","Pinyin":"JinNan","Lng":"117.357260","Lat":"38.937928"},"天津,滨海":{"ID":"10983","ParentID":"7363","Level":"2","AreaCode":"120116000000","ZipCode":"300450","CityCode":"022","Name":"滨海新区","ShortName":"滨海","MergerName":"天津,滨海","Pinyin":"BinHai","Lng":"117.517969","Lat":"38.719936"},"天津,红桥":{"ID":"8079","ParentID":"7363","Level":"2","AreaCode":"120106000000","ZipCode":"300000","CityCode":"022","Name":"红桥区","ShortName":"红桥","MergerName":"天津,红桥","Pinyin":"HongQiao","Lng":"117.151533","Lat":"39.167345"},"天津,蓟州":{"ID":"12251","ParentID":"7363","Level":"2","AreaCode":"120119000000","ZipCode":"301811","CityCode":"022","Name":"蓟州区","ShortName":"蓟州","MergerName":"天津,蓟州","Pinyin":"JiZhou","Lng":"117.200983","Lat":"39.084158"},"天津,西青":{"ID":"8563","ParentID":"7363","Level":"2","AreaCode":"120111000000","ZipCode":"300000","CityCode":"022","Name":"西青区","ShortName":"西青","MergerName":"天津,西青","Pinyin":"XiQing","Lng":"117.008827","Lat":"39.141152"},"天津,静海":{"ID":"11795","ParentID":"7363","Level":"2","AreaCode":"120118000000","ZipCode":"300459","CityCode":"022","Name":"静海区","ShortName":"静海","MergerName":"天津,静海","Pinyin":"JingHai","Lng":"116.974130","Lat":"38.947512"},"宁夏":{"ID":"695259","ParentID":"0","Level":"0","AreaCode":"640000000000","ZipCode":"000000","CityCode":"","Name":"宁夏回族自治区","ShortName":"宁夏","MergerName":"宁夏","Pinyin":"NingXia","Lng":"106.258754","Lat":"38.471317"},"宁夏,中卫":{"ID":"697888","ParentID":"697887","Level":"2","AreaCode":"640501000000","ZipCode":"755000","CityCode":"1953","Name":"市辖区","ShortName":"中卫","MergerName":"宁夏,中卫","Pinyin":"ZhongWei","Lng":"105.196902","Lat":"37.499972"},"宁夏,吴忠":{"ID":"696253","ParentID":"696252","Level":"2","AreaCode":"640301000000","ZipCode":"751100","CityCode":"0953","Name":"市辖区","ShortName":"吴忠","MergerName":"宁夏,吴忠","Pinyin":"WuZhong","Lng":"106.198393","Lat":"37.997460"},"宁夏,固原":{"ID":"696929","ParentID":"696928","Level":"2","AreaCode":"640401000000","ZipCode":"756000","CityCode":"0954","Name":"市辖区","ShortName":"固原","MergerName":"宁夏,固原","Pinyin":"GuYuan","Lng":"106.242610","Lat":"36.015855"},"宁夏,石嘴山":{"ID":"695884","ParentID":"695883","Level":"2","AreaCode":"640201000000","ZipCode":"753000","CityCode":"0952","Name":"市辖区","ShortName":"石嘴山","MergerName":"宁夏,石嘴山","Pinyin":"ShiZuiShan","Lng":"106.383303","Lat":"38.983236"},"宁夏,银川":{"ID":"695261","ParentID":"695260","Level":"2","AreaCode":"640101000000","ZipCode":"750000","CityCode":"0951","Name":"市辖区","ShortName":"银川","MergerName":"宁夏,银川","Pinyin":"YinChuan","Lng":"106.230909","Lat":"38.487193"},"安徽":{"ID":"224649","ParentID":"0","Level":"0","AreaCode":"340000000000","ZipCode":"000000","CityCode":"","Name":"安徽省","ShortName":"安徽","MergerName":"安徽","Pinyin":"AnHui","Lng":"117.284922","Lat":"31.861184"},"安徽,亳州":{"ID":"241181","ParentID":"241180","Level":"2","AreaCode":"341601000000","ZipCode":"236000","CityCode":"0558","Name":"市辖区","ShortName":"亳州","MergerName":"安徽,亳州","Pinyin":"BoZhou","Lng":"115.778676","Lat":"33.844582"},"安徽,六安":{"ID":"239085","ParentID":"239084","Level":"2","AreaCode":"341501000000","ZipCode":"237000","CityCode":"0564","Name":"市辖区","ShortName":"六安","MergerName":"安徽,六安","Pinyin":"LuAn","Lng":"116.521854","Lat":"31.733699"},"安徽,合肥":{"ID":"224651","ParentID":"224650","Level":"2","AreaCode":"340101000000","ZipCode":"230000","CityCode":"0551","Name":"市辖区","ShortName":"合肥","MergerName":"安徽,合肥","Pinyin":"HeFei","Lng":"117.227239","Lat":"31.820586"},"安徽,安庆":{"ID":"231500","ParentID":"231499","Level":"2","AreaCode":"340801000000","ZipCode":"246000","CityCode":"0556","Name":"市辖区","ShortName":"安庆","MergerName":"安徽,安庆","Pinyin":"AnQing","Lng":"117.063754","Lat":"30.543494"},"安徽,宣城":{"ID":"243400","ParentID":"243399","Level":"2","AreaCode":"341801000000","ZipCode":"242000","CityCode":"0563","Name":"市辖区","ShortName":"宣城","MergerName":"安徽,宣城","Pinyin":"XuanCheng","Lng":"118.758816","Lat":"30.940718"},"安徽,宿州":{"ID":"237608","ParentID":"237607","Level":"2","AreaCode":"341301000000","ZipCode":"234000","CityCode":"0557","Name":"市辖区","ShortName":"宿州","MergerName":"安徽,宿州","Pinyin":"SuZhou","Lng":"116.964356","Lat":"33.646373"},"安徽,池州":{"ID":"242635","ParentID":"242634","Level":"2","AreaCode":"341701000000","ZipCode":"247100","CityCode":"0566","Name":"市辖区","ShortName":"池州","MergerName":"安徽,池州","Pinyin":"ChiZhou","Lng":"117.491568","Lat":"30.664800"},"安徽,淮北":{"ID":"230477","ParentID":"230476","Level":"2","AreaCode":"340601000000","ZipCode":"235000","CityCode":"0561","Name":"市辖区","ShortName":"淮北","MergerName":"安徽,淮北","Pinyin":"HuaiBei","Lng":"116.798265","Lat":"33.955844"},"安徽,淮南":{"ID":"228631","ParentID":"228630","Level":"2","AreaCode":"340401000000","ZipCode":"232000","CityCode":"0554","Name":"市辖区","ShortName":"淮南","MergerName":"安徽,淮南","Pinyin":"HuaiNan","Lng":"116.999932","Lat":"32.625478"},"安徽,滁州":{"ID":"234110","ParentID":"234109","Level":"2","AreaCode":"341101000000","ZipCode":"239000","CityCode":"0550","Name":"市辖区","ShortName":"滁州","MergerName":"安徽,滁州","Pinyin":"ChuZhou","Lng":"118.317106","Lat":"32.301556"},"安徽,芜湖":{"ID":"226470","ParentID":"226469","Level":"2","AreaCode":"340201000000","ZipCode":"241000","CityCode":"0553","Name":"市辖区","ShortName":"芜湖","MergerName":"安徽,芜湖","Pinyin":"WuHu","Lng":"118.432941","Lat":"31.352859"},"安徽,蚌埠":{"ID":"227483","ParentID":"227482","Level":"2","AreaCode":"340301000000","ZipCode":"233000","CityCode":"0552","Name":"市辖区","ShortName":"蚌埠","MergerName":"安徽,蚌埠","Pinyin":"BengBu","Lng":"117.389719","Lat":"32.916287"},"安徽,铜陵":{"ID":"230982","ParentID":"230981","Level":"2","AreaCode":"340701000000","ZipCode":"244000","CityCode":"0562","Name":"市辖区","ShortName":"铜陵","MergerName":"安徽,铜陵","Pinyin":"TongLing","Lng":"117.812079","Lat":"30.945429"},"安徽,阜阳":{"ID":"235484","ParentID":"235483","Level":"2","AreaCode":"341201000000","ZipCode":"236000","CityCode":"1558","Name":"市辖区","ShortName":"阜阳","MergerName":"安徽,阜阳","Pinyin":"FuYang","Lng":"115.814204","Lat":"32.890124"},"安徽,马鞍山":{"ID":"229845","ParentID":"229844","Level":"2","AreaCode":"340501000000","ZipCode":"243000","CityCode":"0555","Name":"市辖区","ShortName":"马鞍山","MergerName":"安徽,马鞍山","Pinyin":"MaAnShan","Lng":"118.506759","Lat":"31.670452"},"安徽,黄山":{"ID":"233237","ParentID":"233236","Level":"2","AreaCode":"341001000000","ZipCode":"242700","CityCode":"0559","Name":"市辖区","ShortName":"黄山","MergerName":"安徽,黄山","Pinyin":"HuangShan","Lng":"118.337481","Lat":"29.714655"},"山东":{"ID":"285860","ParentID":"0","Level":"0","AreaCode":"370000000000","ZipCode":"000000","CityCode":"","Name":"山东省","ShortName":"山东","MergerName":"山东","Pinyin":"ShanDong","Lng":"117.020359","Lat":"36.668530"},"山东,东营":{"ID":"304310","ParentID":"304309","Level":"2","AreaCode":"370501000000","ZipCode":"257000","CityCode":"0546","Name":"市辖区","ShortName":"东营","MergerName":"山东,东营","Pinyin":"DongYing","Lng":"118.674767","Lat":"37.434751"},"山东,临沂":{"ID":"337145","ParentID":"337144","Level":"2","AreaCode":"371301000000","ZipCode":"276000","CityCode":"0539","Name":"市辖区","ShortName":"临沂","MergerName":"山东,临沂","Pinyin":"LinYi","Lng":"118.356448","Lat":"35.104672"},"山东,威海":{"ID":"330548","ParentID":"330547","Level":"2","AreaCode":"371001000000","ZipCode":"264200","CityCode":"0631","Name":"市辖区","ShortName":"威海","MergerName":"山东,威海","Pinyin":"WeiHai","Lng":"122.120419","Lat":"37.513068"},"山东,德州":{"ID":"344134","ParentID":"344133","Level":"2","AreaCode":"371401000000","ZipCode":"253000","CityCode":"0534","Name":"市辖区","ShortName":"德州","MergerName":"山东,德州","Pinyin":"DeZhou","Lng":"116.357464","Lat":"37.434092"},"山东,日照":{"ID":"333141","ParentID":"333140","Level":"2","AreaCode":"371101000000","ZipCode":"276800","CityCode":"0633","Name":"市辖区","ShortName":"日照","MergerName":"山东,日照","Pinyin":"RiZhao","Lng":"119.526888","Lat":"35.416377"},"山东,枣庄":{"ID":"301712","ParentID":"301711","Level":"2","AreaCode":"370401000000","ZipCode":"277000","CityCode":"0632","Name":"市辖区","ShortName":"枣庄","MergerName":"山东,枣庄","Pinyin":"ZaoZhuang","Lng":"117.323725","Lat":"34.810487"},"山东,泰安":{"ID":"326707","ParentID":"326706","Level":"2","AreaCode":"370901000000","ZipCode":"271000","CityCode":"0538","Name":"市辖区","ShortName":"泰安","MergerName":"山东,泰安","Pinyin":"TaiAn","Lng":"117.087614","Lat":"36.200252"},"山东,济南":{"ID":"285862","ParentID":"285861","Level":"2","AreaCode":"370101000000","ZipCode":"250000","CityCode":"0531","Name":"市辖区","ShortName":"济南","MergerName":"山东,济南","Pinyin":"JiNan","Lng":"117.119999","Lat":"36.651216"},"山东,济宁":{"ID":"320180","ParentID":"320179","Level":"2","AreaCode":"370801000000","ZipCode":"272000","CityCode":"0537","Name":"市辖区","ShortName":"济宁","MergerName":"山东,济宁","Pinyin":"JiNing","Lng":"116.587098","Lat":"35.414921"},"山东,淄博":{"ID":"298026","ParentID":"298025","Level":"2","AreaCode":"370301000000","ZipCode":"255000","CityCode":"0533","Name":"市辖区","ShortName":"淄博","MergerName":"山东,淄博","Pinyin":"ZiBo","Lng":"118.054927","Lat":"36.813487"},"山东,滨州":{"ID":"355973","ParentID":"355972","Level":"2","AreaCode":"371601000000","ZipCode":"256600","CityCode":"0543","Name":"市辖区","ShortName":"滨州","MergerName":"山东,滨州","Pinyin":"BinZhou","Lng":"117.970703","Lat":"37.381990"},"山东,潍坊":{"ID":"313064","ParentID":"313063","Level":"2","AreaCode":"370701000000","ZipCode":"261000","CityCode":"0536","Name":"市辖区","ShortName":"潍坊","MergerName":"山东,潍坊","Pinyin":"WeiFang","Lng":"119.161755","Lat":"36.706774"},"山东,烟台":{"ID":"306340","ParentID":"306339","Level":"2","AreaCode":"370601000000","ZipCode":"264000","CityCode":"0535","Name":"市辖区","ShortName":"烟台","MergerName":"山东,烟台","Pinyin":"YanTai","Lng":"121.447935","Lat":"37.463822"},"山东,聊城":{"ID":"349383","ParentID":"349382","Level":"2","AreaCode":"371501000000","ZipCode":"252000","CityCode":"0635","Name":"市辖区","ShortName":"聊城","MergerName":"山东,聊城","Pinyin":"LiaoCheng","Lng":"115.985371","Lat":"36.456703"},"山东,莱芜":{"ID":"336051","ParentID":"336050","Level":"2","AreaCode":"371201000000","ZipCode":"271100","CityCode":"0634","Name":"市辖区","ShortName":"莱芜","MergerName":"山东,莱芜","Pinyin":"LaiWu","Lng":"117.676723","Lat":"36.213813"},"山东,菏泽":{"ID":"361376","ParentID":"361375","Level":"2","AreaCode":"371701000000","ZipCode":"274000","CityCode":"0530","Name":"市辖区","ShortName":"菏泽","MergerName":"山东,菏泽","Pinyin":"HeZe","Lng":"115.480656","Lat":"35.233750"},"山东,青岛":{"ID":"291236","ParentID":"291235","Level":"2","AreaCode":"370201000000","ZipCode":"266000","CityCode":"0532","Name":"市辖区","ShortName":"青岛","MergerName":"山东,青岛","Pinyin":"QingDao","Lng":"120.382639","Lat":"36.067082"},"山西":{"ID":"67747","ParentID":"0","Level":"0","AreaCode":"140000000000","ZipCode":"000000","CityCode":"","Name":"山西省","ShortName":"山西","MergerName":"山西","Pinyin":"ShanXi","Lng":"112.562398","Lat":"37.873531"},"山西,临汾":{"ID":"92739","ParentID":"92738","Level":"2","AreaCode":"141001000000","ZipCode":"041000","CityCode":"0357","Name":"市辖区","ShortName":"临汾","MergerName":"山西,临汾","Pinyin":"LinFen","Lng":"111.518976","Lat":"36.088005"},"山西,吕梁":{"ID":"96065","ParentID":"96064","Level":"2","AreaCode":"141101000000","ZipCode":"033000","CityCode":"0358","Name":"市辖区","ShortName":"吕梁","MergerName":"山西,吕梁","Pinyin":"LvLiang","Lng":"111.144319","Lat":"37.518314"},"山西,大同":{"ID":"69391","ParentID":"69390","Level":"2","AreaCode":"140201000000","ZipCode":"037300","CityCode":"0352","Name":"市辖区","ShortName":"大同","MergerName":"山西,大同","Pinyin":"DaTong","Lng":"113.612440","Lat":"40.040295"},"山西,太原":{"ID":"67749","ParentID":"67748","Level":"2","AreaCode":"140101000000","ZipCode":"030000","CityCode":"0351","Name":"市辖区","ShortName":"太原","MergerName":"山西,太原","Pinyin":"TaiYuan","Lng":"112.548879","Lat":"37.870590"},"山西,忻州":{"ID":"87614","ParentID":"87613","Level":"2","AreaCode":"140901000000","ZipCode":"034000","CityCode":"0350","Name":"市辖区","ShortName":"忻州","MergerName":"山西,忻州","Pinyin":"XinZhou","Lng":"112.734174","Lat":"38.416663"},"山西,晋中":{"ID":"81001","ParentID":"81000","Level":"2","AreaCode":"140701000000","ZipCode":"030600","CityCode":"0354","Name":"市辖区","ShortName":"晋中","MergerName":"山西,晋中","Pinyin":"JinZhong","Lng":"112.752694","Lat":"37.687024"},"山西,晋城":{"ID":"76727","ParentID":"76726","Level":"2","AreaCode":"140501000000","ZipCode":"048000","CityCode":"0356","Name":"市辖区","ShortName":"晋城","MergerName":"山西,晋城","Pinyin":"JinCheng","Lng":"112.851831","Lat":"35.490701"},"山西,朔州":{"ID":"79164","ParentID":"79163","Level":"2","AreaCode":"140601000000","ZipCode":"036000","CityCode":"0349","Name":"市辖区","ShortName":"朔州","MergerName":"山西,朔州","Pinyin":"ShuoZhou","Lng":"112.432825","Lat":"39.331595"},"山西,运城":{"ID":"84093","ParentID":"84092","Level":"2","AreaCode":"140801000000","ZipCode":"044000","CityCode":"0359","Name":"市辖区","ShortName":"运城","MergerName":"山西,运城","Pinyin":"YunCheng","Lng":"111.007528","Lat":"35.026412"},"山西,长治":{"ID":"72976","ParentID":"72975","Level":"2","AreaCode":"140401000000","ZipCode":"046000","CityCode":"0355","Name":"市辖区","ShortName":"长治","MergerName":"山西,长治","Pinyin":"ChangZhi","Lng":"113.116255","Lat":"36.195386"},"山西,阳泉":{"ID":"71851","ParentID":"71850","Level":"2","AreaCode":"140301000000","ZipCode":"045000","CityCode":"0353","Name":"市辖区","ShortName":"阳泉","MergerName":"山西,阳泉","Pinyin":"YangQuan","Lng":"113.580519","Lat":"37.856971"},"广东":{"ID":"483250","ParentID":"0","Level":"0","AreaCode":"440000000000","ZipCode":"000000","CityCode":"","Name":"广东省","ShortName":"广东","MergerName":"广东","Pinyin":"GuangDong","Lng":"113.266530","Lat":"23.132191"},"广东,东莞":{"ID":"506616","ParentID":"483250","Level":"1","AreaCode":"441900000000","ZipCode":"523000","CityCode":"0769","Name":"东莞市","ShortName":"东莞","MergerName":"广东,东莞","Pinyin":"DongGuan","Lng":"113.751765","Lat":"23.020536"},"广东,中山":{"ID":"507255","ParentID":"483250","Level":"1","AreaCode":"442000000000","ZipCode":"528400","CityCode":"0760","Name":"中山市","ShortName":"中山","MergerName":"广东,中山","Pinyin":"ZhongShan","Lng":"113.392782","Lat":"22.517645"},"广东,云浮":{"ID":"510409","ParentID":"510408","Level":"2","AreaCode":"445301000000","ZipCode":"527300","CityCode":"0766","Name":"市辖区","ShortName":"云浮","MergerName":"广东,云浮","Pinyin":"YunFu","Lng":"112.044491","Lat":"22.915094"},"广东,佛山":{"ID":"490107","ParentID":"490106","Level":"2","AreaCode":"440601000000","ZipCode":"528000","CityCode":"0757","Name":"市辖区","ShortName":"佛山","MergerName":"广东,佛山","Pinyin":"FoShan","Lng":"113.121416","Lat":"23.021548"},"广东,广州":{"ID":"483252","ParentID":"483251","Level":"2","AreaCode":"440101000000","ZipCode":"510000","CityCode":"020","Name":"市辖区","ShortName":"广州","MergerName":"广东,广州","Pinyin":"GuangZhou","Lng":"113.264434","Lat":"23.129162"},"广东,惠州":{"ID":"498105","ParentID":"498104","Level":"2","AreaCode":"441301000000","ZipCode":"516000","CityCode":"0752","Name":"市辖区","ShortName":"惠州","MergerName":"广东,惠州","Pinyin":"HuiZhou","Lng":"114.416196","Lat":"23.111847"},"广东,揭阳":{"ID":"508649","ParentID":"508648","Level":"2","AreaCode":"445201000000","ZipCode":"522000","CityCode":"0663","Name":"市辖区","ShortName":"揭阳","MergerName":"广东,揭阳","Pinyin":"JieYang","Lng":"116.372831","Lat":"23.549993"},"广东,梅州":{"ID":"499490","ParentID":"499489","Level":"2","AreaCode":"441401000000","ZipCode":"514000","CityCode":"0753","Name":"市辖区","ShortName":"梅州","MergerName":"广东,梅州","Pinyin":"MeiZhou","Lng":"116.122238","Lat":"24.288615"},"广东,汕头":{"ID":"488955","ParentID":"488954","Level":"2","AreaCode":"440501000000","ZipCode":"515000","CityCode":"0754","Name":"市辖区","ShortName":"汕头","MergerName":"广东,汕头","Pinyin":"ShanTou","Lng":"116.681972","Lat":"23.354091"},"广东,汕尾":{"ID":"501868","ParentID":"501867","Level":"2","AreaCode":"441501000000","ZipCode":"516600","CityCode":"0660","Name":"市辖区","ShortName":"汕尾","MergerName":"广东,汕尾","Pinyin":"ShanWei","Lng":"115.375278","Lat":"22.786211"},"广东,江门":{"ID":"490920","ParentID":"490919","Level":"2","AreaCode":"440701000000","ZipCode":"529000","CityCode":"0750","Name":"市辖区","ShortName":"江门","MergerName":"广东,江门","Pinyin":"JiangMen","Lng":"113.081901","Lat":"22.578738"},"广东,河源":{"ID":"502829","ParentID":"502828","Level":"2","AreaCode":"441601000000","ZipCode":"517000","CityCode":"0762","Name":"市辖区","ShortName":"河源","MergerName":"广东,河源","Pinyin":"HeYuan","Lng":"114.700447","Lat":"23.743538"},"广东,深圳":{"ID":"487722","ParentID":"487721","Level":"2","AreaCode":"440301000000","ZipCode":"518000","CityCode":"0755","Name":"市辖区","ShortName":"深圳","MergerName":"广东,深圳","Pinyin":"ShenZhen","Lng":"114.057868","Lat":"22.543099"},"广东,清远":{"ID":"505299","ParentID":"505298","Level":"2","AreaCode":"441801000000","ZipCode":"511500","CityCode":"0763","Name":"市辖区","ShortName":"清远","MergerName":"广东,清远","Pinyin":"QingYuan","Lng":"113.056031","Lat":"23.681763"},"广东,湛江":{"ID":"492342","ParentID":"492341","Level":"2","AreaCode":"440801000000","ZipCode":"524000","CityCode":"0759","Name":"市辖区","ShortName":"湛江","MergerName":"广东,湛江","Pinyin":"ZhanJiang","Lng":"110.359377","Lat":"21.270707"},"广东,潮州":{"ID":"507558","ParentID":"507557","Level":"2","AreaCode":"445101000000","ZipCode":"521000","CityCode":"0768","Name":"市辖区","ShortName":"潮州","MergerName":"广东,潮州","Pinyin":"ChaoZhou","Lng":"116.622603","Lat":"23.656950"},"广东,珠海":{"ID":"488590","ParentID":"488589","Level":"2","AreaCode":"440401000000","ZipCode":"519000","CityCode":"0756","Name":"市辖区","ShortName":"珠海","MergerName":"广东,珠海","Pinyin":"ZhuHai","Lng":"113.576726","Lat":"22.270715"},"广东,肇庆":{"ID":"496439","ParentID":"496438","Level":"2","AreaCode":"441201000000","ZipCode":"526000","CityCode":"0758","Name":"市辖区","ShortName":"肇庆","MergerName":"广东,肇庆","Pinyin":"ZhaoQing","Lng":"112.465091","Lat":"23.047191"},"广东,茂名":{"ID":"494395","ParentID":"494394","Level":"2","AreaCode":"440901000000","ZipCode":"525000","CityCode":"0668","Name":"市辖区","ShortName":"茂名","MergerName":"广东,茂名","Pinyin":"MaoMing","Lng":"110.925456","Lat":"21.662999"},"广东,阳江":{"ID":"504367","ParentID":"504366","Level":"2","AreaCode":"441701000000","ZipCode":"529500","CityCode":"0662","Name":"市辖区","ShortName":"阳江","MergerName":"广东,阳江","Pinyin":"YangJiang","Lng":"111.982232","Lat":"21.857958"},"广东,韶关":{"ID":"486130","ParentID":"486129","Level":"2","AreaCode":"440201000000","ZipCode":"512000","CityCode":"0751","Name":"市辖区","ShortName":"韶关","MergerName":"广东,韶关","Pinyin":"ShaoGuan","Lng":"113.597522","Lat":"24.810403"},"广西":{"ID":"511462","ParentID":"0","Level":"0","AreaCode":"450000000000","ZipCode":"000000","CityCode":"","Name":"广西壮族自治区","ShortName":"广西","MergerName":"广西","Pinyin":"GuangXi","Lng":"108.327546","Lat":"22.815478"},"广西,北海":{"ID":"517934","ParentID":"517933","Level":"2","AreaCode":"450501000000","ZipCode":"536000","CityCode":"0779","Name":"市辖区","ShortName":"北海","MergerName":"广西,北海","Pinyin":"BeiHai","Lng":"109.119927","Lat":"21.481254"},"广西,南宁":{"ID":"511464","ParentID":"511463","Level":"2","AreaCode":"450101000000","ZipCode":"530000","CityCode":"0771","Name":"市辖区","ShortName":"南宁","MergerName":"广西,南宁","Pinyin":"NanNing","Lng":"108.366543","Lat":"22.817002"},"广西,崇左":{"ID":"528340","ParentID":"528339","Level":"2","AreaCode":"451401000000","ZipCode":"532200","CityCode":"1771","Name":"市辖区","ShortName":"崇左","MergerName":"广西,崇左","Pinyin":"ChongZuo","Lng":"107.364711","Lat":"22.376532"},"广西,来宾":{"ID":"527444","ParentID":"527443","Level":"2","AreaCode":"451301000000","ZipCode":"546100","CityCode":"1772","Name":"市辖区","ShortName":"来宾","MergerName":"广西,来宾","Pinyin":"LaiBin","Lng":"109.221465","Lat":"23.750306"},"广西,柳州":{"ID":"513435","ParentID":"513434","Level":"2","AreaCode":"450201000000","ZipCode":"545000","CityCode":"0772","Name":"市辖区","ShortName":"柳州","MergerName":"广西,柳州","Pinyin":"LiuZhou","Lng":"109.415953","Lat":"24.325502"},"广西,桂林":{"ID":"514791","ParentID":"514790","Level":"2","AreaCode":"450301000000","ZipCode":"541000","CityCode":"0773","Name":"市辖区","ShortName":"桂林","MergerName":"广西,桂林","Pinyin":"GuiLin","Lng":"110.290194","Lat":"25.273566"},"广西,梧州":{"ID":"516859","ParentID":"516858","Level":"2","AreaCode":"450401000000","ZipCode":"543000","CityCode":"0774","Name":"市辖区","ShortName":"梧州","MergerName":"广西,梧州","Pinyin":"WuZhou","Lng":"111.279115","Lat":"23.476962"},"广西,河池":{"ID":"525639","ParentID":"525638","Level":"2","AreaCode":"451201000000","ZipCode":"547000","CityCode":"0778","Name":"市辖区","ShortName":"河池","MergerName":"广西,河池","Pinyin":"HeChi","Lng":"108.085261","Lat":"24.692931"},"广西,玉林":{"ID":"521167","ParentID":"521166","Level":"2","AreaCode":"450901000000","ZipCode":"537000","CityCode":"0775","Name":"市辖区","ShortName":"玉林","MergerName":"广西,玉林","Pinyin":"YuLin","Lng":"110.164756","Lat":"22.636379"},"广西,百色":{"ID":"522787","ParentID":"522786","Level":"2","AreaCode":"451001000000","ZipCode":"533000","CityCode":"0776","Name":"市辖区","ShortName":"百色","MergerName":"广西,百色","Pinyin":"BoSe","Lng":"106.618201","Lat":"23.902333"},"广西,贵港":{"ID":"519930","ParentID":"519929","Level":"2","AreaCode":"450801000000","ZipCode":"537000","CityCode":"1755","Name":"市辖区","ShortName":"贵港","MergerName":"广西,贵港","Pinyin":"GuiGang","Lng":"109.598926","Lat":"23.111530"},"广西,贺州":{"ID":"524815","ParentID":"524814","Level":"2","AreaCode":"451101000000","ZipCode":"542800","CityCode":"1774","Name":"市辖区","ShortName":"贺州","MergerName":"广西,贺州","Pinyin":"HeZhou","Lng":"111.566694","Lat":"24.403582"},"广西,钦州":{"ID":"518809","ParentID":"518808","Level":"2","AreaCode":"450701000000","ZipCode":"535000","CityCode":"0777","Name":"市辖区","ShortName":"钦州","MergerName":"广西,钦州","Pinyin":"QinZhou","Lng":"108.654146","Lat":"21.979933"},"广西,防城港":{"ID":"518408","ParentID":"518407","Level":"2","AreaCode":"450601000000","ZipCode":"538000","CityCode":"0770","Name":"市辖区","ShortName":"防城港","MergerName":"广西,防城港","Pinyin":"FangChengGang","Lng":"108.353846","Lat":"21.686860"},"新疆":{"ID":"713697","ParentID":"698440","Level":"1","AreaCode":"659000000000","ZipCode":"830000","CityCode":"0991","Name":"直辖县","ShortName":"新疆","MergerName":"新疆","Pinyin":"XinJiang","Lng":"87.627704","Lat":"43.793026"},"新疆,乌鲁木齐":{"ID":"698442","ParentID":"698441","Level":"2","AreaCode":"650101000000","ZipCode":"830000","CityCode":"0991","Name":"市辖区","ShortName":"乌鲁木齐","MergerName":"新疆,乌鲁木齐","Pinyin":"WuLuMuQi","Lng":"87.616848","Lat":"43.825592"},"新疆,五家渠":{"ID":"714310","ParentID":"713697","Level":"2","AreaCode":"659004000000","ZipCode":"831300","CityCode":"","Name":"五家渠市","ShortName":"五家渠","MergerName":"新疆,五家渠","Pinyin":"WuJiaQu","Lng":"87.543243","Lat":"44.166756"},"新疆,伊犁":{"ID":"709792","ParentID":"698440","Level":"1","AreaCode":"654000000000","ZipCode":"835000","CityCode":"0999","Name":"伊犁哈萨克自治州","ShortName":"伊犁","MergerName":"新疆,伊犁","Pinyin":"YiLi","Lng":"81.324136","Lat":"43.916823"},"新疆,克孜勒苏":{"ID":"704779","ParentID":"698440","Level":"1","AreaCode":"653000000000","ZipCode":"845350","CityCode":"0908","Name":"克孜勒苏柯尔克孜自治州","ShortName":"克孜勒苏","MergerName":"新疆,克孜勒苏","Pinyin":"KeZiLeSu","Lng":"76.167819","Lat":"39.714526"},"新疆,克拉玛依":{"ID":"699584","ParentID":"699583","Level":"2","AreaCode":"650201000000","ZipCode":"834000","CityCode":"0990","Name":"市辖区","ShortName":"克拉玛依","MergerName":"新疆,克拉玛依","Pinyin":"KeLaMaYi","Lng":"84.889207","Lat":"45.579888"},"新疆,博尔塔拉":{"ID":"701559","ParentID":"698440","Level":"1","AreaCode":"652700000000","ZipCode":"833400","CityCode":"0909","Name":"博尔塔拉蒙古自治州","ShortName":"博尔塔拉","MergerName":"新疆,博尔塔拉","Pinyin":"BoErTaLa","Lng":"82.066159","Lat":"44.905588"},"新疆,吐鲁番":{"ID":"699773","ParentID":"698440","Level":"1","AreaCode":"650400000000","ZipCode":"838000","CityCode":"0995","Name":"吐鲁番市","ShortName":"吐鲁番","MergerName":"新疆,吐鲁番","Pinyin":"TuLuFan","Lng":"89.189655","Lat":"42.951384"},"新疆,和田":{"ID":"708117","ParentID":"698440","Level":"1","AreaCode":"653200000000","ZipCode":"848000","CityCode":"0903","Name":"和田地区","ShortName":"和田","MergerName":"新疆,和田","Pinyin":"HeTian","Lng":"79.922211","Lat":"37.114157"},"新疆,哈密":{"ID":"700070","ParentID":"698440","Level":"1","AreaCode":"650500000000","ZipCode":"839000","CityCode":"0902","Name":"哈密市","ShortName":"哈密","MergerName":"新疆,哈密","Pinyin":"HaMi","Lng":"93.514916","Lat":"42.818501"},"新疆,喀什":{"ID":"705145","ParentID":"698440","Level":"1","AreaCode":"653100000000","ZipCode":"844000","CityCode":"0998","Name":"喀什地区","ShortName":"喀什","MergerName":"新疆,喀什","Pinyin":"KaShi","Lng":"75.989755","Lat":"39.470400"},"新疆,图木舒克":{"ID":"714172","ParentID":"713697","Level":"2","AreaCode":"659003000000","ZipCode":"844000","CityCode":"","Name":"图木舒克市","ShortName":"图木舒克","MergerName":"新疆,图木舒克","Pinyin":"TuMuShuKe","Lng":"79.074089","Lat":"39.868969"},"新疆,塔城":{"ID":"711218","ParentID":"698440","Level":"1","AreaCode":"654200000000","ZipCode":"834700","CityCode":"0901","Name":"塔城地区","ShortName":"塔城","MergerName":"新疆,塔城","Pinyin":"TaCheng","Lng":"82.980316","Lat":"46.745364"},"新疆,巴音郭楞":{"ID":"702104","ParentID":"698440","Level":"1","AreaCode":"652800000000","ZipCode":"841000","CityCode":"0996","Name":"巴音郭楞蒙古自治州","ShortName":"巴音郭楞","MergerName":"新疆,巴音郭楞","Pinyin":"BaYinGuoLeng","Lng":"86.145298","Lat":"41.764115"},"新疆,昌吉":{"ID":"700489","ParentID":"698440","Level":"1","AreaCode":"652300000000","ZipCode":"831100","CityCode":"0994","Name":"昌吉回族自治州","ShortName":"昌吉","MergerName":"新疆,昌吉","Pinyin":"ChangJi","Lng":"87.308224","Lat":"44.011182"},"新疆,石河子":{"ID":"713698","ParentID":"713697","Level":"2","AreaCode":"659001000000","ZipCode":"832000","CityCode":"","Name":"石河子市","ShortName":"石河子","MergerName":"新疆,石河子","Pinyin":"ShiHeZi","Lng":"86.080460","Lat":"44.305428"},"新疆,铁门关":{"ID":"714363","ParentID":"713697","Level":"2","AreaCode":"659006000000","ZipCode":"841007","CityCode":"","Name":"铁门关市","ShortName":"铁门关","MergerName":"新疆,铁门关","Pinyin":"TieMenGuan","Lng":"85.669533","Lat":"41.863300"},"新疆,阿克苏":{"ID":"703119","ParentID":"698440","Level":"1","AreaCode":"652900000000","ZipCode":"843000","CityCode":"0997","Name":"阿克苏地区","ShortName":"阿克苏","MergerName":"新疆,阿克苏","Pinyin":"AKeSu","Lng":"80.260605","Lat":"41.168779"},"新疆,阿勒泰":{"ID":"712893","ParentID":"698440","Level":"1","AreaCode":"654300000000","ZipCode":"836000","CityCode":"0906","Name":"阿勒泰地区","ShortName":"阿勒泰","MergerName":"新疆,阿勒泰","Pinyin":"ALeTai","Lng":"88.141253","Lat":"47.844924"},"新疆,阿拉尔":{"ID":"713842","ParentID":"713697","Level":"2","AreaCode":"659002000000","ZipCode":"843300","CityCode":"","Name":"阿拉尔市","ShortName":"阿拉尔","MergerName":"新疆,阿拉尔","Pinyin":"ALaEr","Lng":"81.280525","Lat":"40.547653"},"江苏":{"ID":"167904","ParentID":"0","Level":"0","AreaCode":"320000000000","ZipCode":"000000","CityCode":"","Name":"江苏省","ShortName":"江苏","MergerName":"江苏","Pinyin":"JiangSu","Lng":"118.763232","Lat":"32.061707"},"江苏,南京":{"ID":"167906","ParentID":"167905","Level":"2","AreaCode":"320101000000","ZipCode":"210000","CityCode":"025","Name":"市辖区","ShortName":"南京","MergerName":"江苏,南京","Pinyin":"NanJing","Lng":"118.796877","Lat":"32.060255"},"江苏,南通":{"ID":"176921","ParentID":"176920","Level":"2","AreaCode":"320601000000","ZipCode":"226000","CityCode":"0513","Name":"市辖区","ShortName":"南通","MergerName":"江苏,南通","Pinyin":"NanTong","Lng":"120.894291","Lat":"31.980171"},"江苏,宿迁":{"ID":"189403","ParentID":"189402","Level":"2","AreaCode":"321301000000","ZipCode":"223800","CityCode":"0527","Name":"市辖区","ShortName":"宿迁","MergerName":"江苏,宿迁","Pinyin":"SuQian","Lng":"118.275198","Lat":"33.963232"},"江苏,常州":{"ID":"173636","ParentID":"173635","Level":"2","AreaCode":"320401000000","ZipCode":"213000","CityCode":"0519","Name":"市辖区","ShortName":"常州","MergerName":"江苏,常州","Pinyin":"ChangZhou","Lng":"119.973987","Lat":"31.810689"},"江苏,徐州":{"ID":"170725","ParentID":"170724","Level":"2","AreaCode":"320301000000","ZipCode":"221000","CityCode":"0516","Name":"市辖区","ShortName":"徐州","MergerName":"江苏,徐州","Pinyin":"XuZhou","Lng":"117.284124","Lat":"34.205768"},"江苏,扬州":{"ID":"185202","ParentID":"185201","Level":"2","AreaCode":"321001000000","ZipCode":"225000","CityCode":"0514","Name":"市辖区","ShortName":"扬州","MergerName":"江苏,扬州","Pinyin":"YangZhou","Lng":"119.412966","Lat":"32.394210"},"江苏,无锡":{"ID":"169376","ParentID":"169375","Level":"2","AreaCode":"320201000000","ZipCode":"214000","CityCode":"0510","Name":"市辖区","ShortName":"无锡","MergerName":"江苏,无锡","Pinyin":"WuXi","Lng":"120.311910","Lat":"31.491169"},"江苏,泰州":{"ID":"187442","ParentID":"187441","Level":"2","AreaCode":"321201000000","ZipCode":"225300","CityCode":"0523","Name":"市辖区","ShortName":"泰州","MergerName":"江苏,泰州","Pinyin":"TaiZhou","Lng":"119.923116","Lat":"32.455778"},"江苏,淮安":{"ID":"180744","ParentID":"180743","Level":"2","AreaCode":"320801000000","ZipCode":"223001","CityCode":"0517","Name":"市辖区","ShortName":"淮安","MergerName":"江苏,淮安","Pinyin":"HuaiAn","Lng":"119.015285","Lat":"33.610353"},"江苏,盐城":{"ID":"182539","ParentID":"182538","Level":"2","AreaCode":"320901000000","ZipCode":"224000","CityCode":"0515","Name":"市辖区","ShortName":"盐城","MergerName":"江苏,盐城","Pinyin":"YanCheng","Lng":"120.163561","Lat":"33.347382"},"江苏,苏州":{"ID":"174765","ParentID":"174764","Level":"2","AreaCode":"320501000000","ZipCode":"215000","CityCode":"0512","Name":"市辖区","ShortName":"苏州","MergerName":"江苏,苏州","Pinyin":"SuZhou","Lng":"120.585315","Lat":"31.298886"},"江苏,连云港":{"ID":"179000","ParentID":"178999","Level":"2","AreaCode":"320701000000","ZipCode":"222000","CityCode":"0518","Name":"市辖区","ShortName":"连云港","MergerName":"江苏,连云港","Pinyin":"LianYunGang","Lng":"119.221611","Lat":"34.596653"},"江苏,镇江":{"ID":"186658","ParentID":"186657","Level":"2","AreaCode":"321101000000","ZipCode":"212000","CityCode":"0511","Name":"市辖区","ShortName":"镇江","MergerName":"江苏,镇江","Pinyin":"ZhenJiang","Lng":"119.425836","Lat":"32.187849"},"江西":{"ID":"262698","ParentID":"0","Level":"0","AreaCode":"360000000000","ZipCode":"000000","CityCode":"","Name":"江西省","ShortName":"江西","MergerName":"江西","Pinyin":"JiangXi","Lng":"115.909228","Lat":"28.675696"},"江西,上饶":{"ID":"282842","ParentID":"282841","Level":"2","AreaCode":"361101000000","ZipCode":"334000","CityCode":"0793","Name":"市辖区","ShortName":"上饶","MergerName":"江西,上饶","Pinyin":"ShangRao","Lng":"117.943433","Lat":"28.454862"},"江西,九江":{"ID":"266522","ParentID":"266521","Level":"2","AreaCode":"360401000000","ZipCode":"332000","CityCode":"0792","Name":"市辖区","ShortName":"九江","MergerName":"江西,九江","Pinyin":"JiuJiang","Lng":"116.001930","Lat":"29.705077"},"江西,南昌":{"ID":"262700","ParentID":"262699","Level":"2","AreaCode":"360101000000","ZipCode":"330000","CityCode":"0791","Name":"市辖区","ShortName":"南昌","MergerName":"江西,南昌","Pinyin":"NanChang","Lng":"115.858197","Lat":"28.682892"},"江西,吉安":{"ID":"274445","ParentID":"274444","Level":"2","AreaCode":"360801000000","ZipCode":"343000","CityCode":"0796","Name":"市辖区","ShortName":"吉安","MergerName":"江西,吉安","Pinyin":"JiAn","Lng":"114.992509","Lat":"27.113443"},"江西,宜春":{"ID":"277616","ParentID":"277615","Level":"2","AreaCode":"360901000000","ZipCode":"336000","CityCode":"0795","Name":"市辖区","ShortName":"宜春","MergerName":"江西,宜春","Pinyin":"YiChun","Lng":"114.416778","Lat":"27.815619"},"江西,抚州":{"ID":"280563","ParentID":"280562","Level":"2","AreaCode":"361001000000","ZipCode":"344000","CityCode":"0794","Name":"市辖区","ShortName":"抚州","MergerName":"江西,抚州","Pinyin":"FuZhou","Lng":"116.358181","Lat":"27.949217"},"江西,新余":{"ID":"269108","ParentID":"269107","Level":"2","AreaCode":"360501000000","ZipCode":"338000","CityCode":"0790","Name":"市辖区","ShortName":"新余","MergerName":"江西,新余","Pinyin":"XinYu","Lng":"114.917346","Lat":"27.817808"},"江西,景德镇":{"ID":"264863","ParentID":"264862","Level":"2","AreaCode":"360201000000","ZipCode":"333000","CityCode":"0798","Name":"市辖区","ShortName":"景德镇","MergerName":"江西,景德镇","Pinyin":"JingDeZhen","Lng":"117.178419","Lat":"29.268835"},"江西,萍乡":{"ID":"265678","ParentID":"265677","Level":"2","AreaCode":"360301000000","ZipCode":"337000","CityCode":"0799","Name":"市辖区","ShortName":"萍乡","MergerName":"江西,萍乡","Pinyin":"PingXiang","Lng":"113.854556","Lat":"27.622768"},"江西,赣州":{"ID":"270223","ParentID":"270222","Level":"2","AreaCode":"360701000000","ZipCode":"341000","CityCode":"0797","Name":"市辖区","ShortName":"赣州","MergerName":"江西,赣州","Pinyin":"GanZhou","Lng":"114.935029","Lat":"25.831829"},"江西,鹰潭":{"ID":"269655","ParentID":"269654","Level":"2","AreaCode":"360601000000","ZipCode":"335000","CityCode":"0701","Name":"市辖区","ShortName":"鹰潭","MergerName":"江西,鹰潭","Pinyin":"YingTan","Lng":"117.069202","Lat":"28.260189"},"河北":{"ID":"66813","ParentID":"13267","Level":"1","AreaCode":"139000000000","ZipCode":"050000","CityCode":"0311","Name":"直辖县","ShortName":"河北","MergerName":"河北","Pinyin":"HeBei","Lng":"114.468664","Lat":"38.037057"},"河北,保定":{"ID":"38161","ParentID":"38160","Level":"2","AreaCode":"130601000000","ZipCode":"071000","CityCode":"0312","Name":"市辖区","ShortName":"保定","MergerName":"河北,保定","Pinyin":"BaoDing","Lng":"115.464806","Lat":"38.873891"},"河北,唐山":{"ID":"18129","ParentID":"18128","Level":"2","AreaCode":"130201000000","ZipCode":"063000","CityCode":"0315","Name":"市辖区","ShortName":"唐山","MergerName":"河北,唐山","Pinyin":"TangShan","Lng":"118.180193","Lat":"39.630867"},"河北,定州":{"ID":"66814","ParentID":"66813","Level":"2","AreaCode":"139001000000","ZipCode":"073000","CityCode":"0312","Name":"定州市","ShortName":"定州","MergerName":"河北,定州","Pinyin":"DingZhou","Lng":"114.990159","Lat":"38.516174"},"河北,廊坊":{"ID":"58248","ParentID":"58247","Level":"2","AreaCode":"131001000000","ZipCode":"065000","CityCode":"0316","Name":"市辖区","ShortName":"廊坊","MergerName":"河北,廊坊","Pinyin":"LangFang","Lng":"116.683752","Lat":"39.538047"},"河北,张家口":{"ID":"44571","ParentID":"44570","Level":"2","AreaCode":"130701000000","ZipCode":"075000","CityCode":"0313","Name":"市辖区","ShortName":"张家口","MergerName":"河北,张家口","Pinyin":"ZhangJiaKou","Lng":"114.887543","Lat":"40.824418"},"河北,承德":{"ID":"49191","ParentID":"49190","Level":"2","AreaCode":"130801000000","ZipCode":"067000","CityCode":"0314","Name":"市辖区","ShortName":"承德","MergerName":"河北,承德","Pinyin":"ChengDe","Lng":"117.962410","Lat":"40.954071"},"河北,沧州":{"ID":"52019","ParentID":"52018","Level":"2","AreaCode":"130901000000","ZipCode":"061000","CityCode":"0317","Name":"市辖区","ShortName":"沧州","MergerName":"河北,沧州","Pinyin":"CangZhou","Lng":"116.838834","Lat":"38.304477"},"河北,石家庄":{"ID":"13269","ParentID":"13268","Level":"2","AreaCode":"130101000000","ZipCode":"050000","CityCode":"0311","Name":"市辖区","ShortName":"石家庄","MergerName":"河北,石家庄","Pinyin":"ShiJiaZhuang","Lng":"114.514859","Lat":"38.042306"},"河北,秦皇岛":{"ID":"24372","ParentID":"24371","Level":"2","AreaCode":"130301000000","ZipCode":"066000","CityCode":"0335","Name":"市辖区","ShortName":"秦皇岛","MergerName":"河北,秦皇岛","Pinyin":"QinHuangDao","Lng":"119.600492","Lat":"39.935385"},"河北,衡水":{"ID":"61805","ParentID":"61804","Level":"2","AreaCode":"131101000000","ZipCode":"053000","CityCode":"0318","Name":"市辖区","ShortName":"衡水","MergerName":"河北,衡水","Pinyin":"HengShui","Lng":"115.670177","Lat":"37.738920"},"河北,辛集":{"ID":"67371","ParentID":"66813","Level":"2","AreaCode":"139002000000","ZipCode":"052300","CityCode":"0311","Name":"辛集市","ShortName":"辛集","MergerName":"河北,辛集","Pinyin":"XinJi","Lng":"115.218057","Lat":"37.943315"},"河北,邢台":{"ID":"32689","ParentID":"32688","Level":"2","AreaCode":"130501000000","ZipCode":"054000","CityCode":"0319","Name":"市辖区","ShortName":"邢台","MergerName":"河北,邢台","Pinyin":"XingTai","Lng":"114.504844","Lat":"37.070589"},"河北,邯郸":{"ID":"26780","ParentID":"26779","Level":"2","AreaCode":"130401000000","ZipCode":"056000","CityCode":"0310","Name":"市辖区","ShortName":"邯郸","MergerName":"河北,邯郸","Pinyin":"HanDan","Lng":"114.538961","Lat":"36.625657"},"河南":{"ID":"420258","ParentID":"367395","Level":"1","AreaCode":"419000000000","ZipCode":"450000","CityCode":"0371","Name":"直辖县","ShortName":"河南","MergerName":"河南","Pinyin":"HeNan","Lng":"113.753602","Lat":"34.765515"},"河南,三门峡":{"ID":"396612","ParentID":"396611","Level":"2","AreaCode":"411201000000","ZipCode":"472000","CityCode":"0398","Name":"市辖区","ShortName":"三门峡","MergerName":"河南,三门峡","Pinyin":"SanMenXia","Lng":"111.200135","Lat":"34.772493"},"河南,信阳":{"ID":"408288","ParentID":"408287","Level":"2","AreaCode":"411501000000","ZipCode":"464000","CityCode":"0376","Name":"市辖区","ShortName":"信阳","MergerName":"河南,信阳","Pinyin":"XinYang","Lng":"114.091023","Lat":"32.146983"},"河南,南阳":{"ID":"398170","ParentID":"398169","Level":"2","AreaCode":"411301000000","ZipCode":"473000","CityCode":"0377","Name":"市辖区","ShortName":"南阳","MergerName":"河南,南阳","Pinyin":"NanYang","Lng":"112.528321","Lat":"32.990833"},"河南,周口":{"ID":"411926","ParentID":"411925","Level":"2","AreaCode":"411601000000","ZipCode":"466000","CityCode":"0394","Name":"市辖区","ShortName":"周口","MergerName":"河南,周口","Pinyin":"ZhouKou","Lng":"114.696951","Lat":"33.626149"},"河南,商丘":{"ID":"403312","ParentID":"403311","Level":"2","AreaCode":"411401000000","ZipCode":"476000","CityCode":"0370","Name":"市辖区","ShortName":"商丘","MergerName":"河南,商丘","Pinyin":"ShangQiu","Lng":"115.656370","Lat":"34.414172"},"河南,安阳":{"ID":"379246","ParentID":"379245","Level":"2","AreaCode":"410501000000","ZipCode":"455000","CityCode":"0372","Name":"市辖区","ShortName":"安阳","MergerName":"河南,安阳","Pinyin":"AnYang","Lng":"114.392392","Lat":"36.097577"},"河南,平顶山":{"ID":"376366","ParentID":"376365","Level":"2","AreaCode":"410401000000","ZipCode":"467000","CityCode":"0375","Name":"市辖区","ShortName":"平顶山","MergerName":"河南,平顶山","Pinyin":"PingDingShan","Lng":"113.192661","Lat":"33.766169"},"河南,开封":{"ID":"370305","ParentID":"370304","Level":"2","AreaCode":"410201000000","ZipCode":"475000","CityCode":"0378","Name":"市辖区","ShortName":"开封","MergerName":"河南,开封","Pinyin":"KaiFeng","Lng":"114.307581","Lat":"34.797239"},"河南,新乡":{"ID":"383891","ParentID":"383890","Level":"2","AreaCode":"410701000000","ZipCode":"453000","CityCode":"0373","Name":"市辖区","ShortName":"新乡","MergerName":"河南,新乡","Pinyin":"XinXiang","Lng":"113.926800","Lat":"35.303004"},"河南,洛阳":{"ID":"372972","ParentID":"372971","Level":"2","AreaCode":"410301000000","ZipCode":"471000","CityCode":"0379","Name":"市辖区","ShortName":"洛阳","MergerName":"河南,洛阳","Pinyin":"LuoYang","Lng":"112.454040","Lat":"34.619682"},"河南,济源":{"ID":"420259","ParentID":"420258","Level":"2","AreaCode":"419001000000","ZipCode":"454650","CityCode":"","Name":"济源市","ShortName":"济源","MergerName":"河南,济源","Pinyin":"JiYuan","Lng":"112.602341","Lat":"35.069031"},"河南,漯河":{"ID":"395255","ParentID":"395254","Level":"2","AreaCode":"411101000000","ZipCode":"462000","CityCode":"0395","Name":"市辖区","ShortName":"漯河","MergerName":"河南,漯河","Pinyin":"TaHe","Lng":"114.016539","Lat":"33.581412"},"河南,濮阳":{"ID":"389720","ParentID":"389719","Level":"2","AreaCode":"410901000000","ZipCode":"457000","CityCode":"0393","Name":"市辖区","ShortName":"濮阳","MergerName":"河南,濮阳","Pinyin":"PuYang","Lng":"115.029215","Lat":"35.761829"},"河南,焦作":{"ID":"387708","ParentID":"387707","Level":"2","AreaCode":"410801000000","ZipCode":"454150","CityCode":"0391","Name":"市辖区","ShortName":"焦作","MergerName":"河南,焦作","Pinyin":"JiaoZuo","Lng":"113.241823","Lat":"35.215892"},"河南,许昌":{"ID":"392738","ParentID":"392737","Level":"2","AreaCode":"411001000000","ZipCode":"461000","CityCode":"0374","Name":"市辖区","ShortName":"许昌","MergerName":"河南,许昌","Pinyin":"XuChang","Lng":"113.852640","Lat":"34.035506"},"河南,郑州":{"ID":"367397","ParentID":"367396","Level":"2","AreaCode":"410101000000","ZipCode":"450000","CityCode":"0371","Name":"市辖区","ShortName":"郑州","MergerName":"河南,郑州","Pinyin":"ZhengZhou","Lng":"113.625368","Lat":"34.746599"},"河南,驻马店":{"ID":"417175","ParentID":"417174","Level":"2","AreaCode":"411701000000","ZipCode":"463000","CityCode":"0396","Name":"市辖区","ShortName":"驻马店","MergerName":"河南,驻马店","Pinyin":"ZhuMaDian","Lng":"114.022298","Lat":"33.011529"},"河南,鹤壁":{"ID":"382879","ParentID":"382878","Level":"2","AreaCode":"410601000000","ZipCode":"458000","CityCode":"0392","Name":"市辖区","ShortName":"鹤壁","MergerName":"河南,鹤壁","Pinyin":"HeBi","Lng":"114.297272","Lat":"35.747225"},"浙江":{"ID":"191019","ParentID":"0","Level":"0","AreaCode":"330000000000","ZipCode":"000000","CityCode":"","Name":"浙江省","ShortName":"浙江","MergerName":"浙江","Pinyin":"ZheJiang","Lng":"120.152791","Lat":"30.267446"},"浙江,丽水":{"ID":"221611","ParentID":"221610","Level":"2","AreaCode":"331101000000","ZipCode":"323000","CityCode":"0578","Name":"市辖区","ShortName":"丽水","MergerName":"浙江,丽水","Pinyin":"LiShui","Lng":"119.922796","Lat":"28.467630"},"浙江,台州":{"ID":"216450","ParentID":"216449","Level":"2","AreaCode":"331001000000","ZipCode":"318000","CityCode":"0576","Name":"市辖区","ShortName":"台州","MergerName":"浙江,台州","Pinyin":"TaiZhou","Lng":"121.420757","Lat":"28.656386"},"浙江,嘉兴":{"ID":"203853","ParentID":"203852","Level":"2","AreaCode":"330401000000","ZipCode":"314000","CityCode":"0573","Name":"市辖区","ShortName":"嘉兴","MergerName":"浙江,嘉兴","Pinyin":"JiaXing","Lng":"120.755486","Lat":"30.746129"},"浙江,宁波":{"ID":"194396","ParentID":"194395","Level":"2","AreaCode":"330201000000","ZipCode":"315000","CityCode":"0574","Name":"市辖区","ShortName":"宁波","MergerName":"浙江,宁波","Pinyin":"NingBo","Lng":"121.550357","Lat":"29.874556"},"浙江,杭州":{"ID":"191021","ParentID":"191020","Level":"2","AreaCode":"330101000000","ZipCode":"310000","CityCode":"0571","Name":"市辖区","ShortName":"杭州","MergerName":"浙江,杭州","Pinyin":"HangZhou","Lng":"120.155070","Lat":"30.274084"},"浙江,温州":{"ID":"197851","ParentID":"197850","Level":"2","AreaCode":"330301000000","ZipCode":"325000","CityCode":"0577","Name":"市辖区","ShortName":"温州","MergerName":"浙江,温州","Pinyin":"WenZhou","Lng":"120.699366","Lat":"27.994267"},"浙江,湖州":{"ID":"205102","ParentID":"205101","Level":"2","AreaCode":"330501000000","ZipCode":"313000","CityCode":"0572","Name":"市辖区","ShortName":"湖州","MergerName":"浙江,湖州","Pinyin":"HuZhou","Lng":"120.086823","Lat":"30.894348"},"浙江,绍兴":{"ID":"206439","ParentID":"206438","Level":"2","AreaCode":"330601000000","ZipCode":"312000","CityCode":"0575","Name":"市辖区","ShortName":"绍兴","MergerName":"浙江,绍兴","Pinyin":"ShaoXing","Lng":"120.580232","Lat":"30.029752"},"浙江,舟山":{"ID":"215956","ParentID":"215955","Level":"2","AreaCode":"330901000000","ZipCode":"316000","CityCode":"0580","Name":"市辖区","ShortName":"舟山","MergerName":"浙江,舟山","Pinyin":"ZhouShan","Lng":"122.207215","Lat":"29.985295"},"浙江,衢州":{"ID":"214261","ParentID":"214260","Level":"2","AreaCode":"330801000000","ZipCode":"324000","CityCode":"0570","Name":"市辖区","ShortName":"衢州","MergerName":"浙江,衢州","Pinyin":"QuZhou","Lng":"118.859457","Lat":"28.970079"},"浙江,金华":{"ID":"209251","ParentID":"209250","Level":"2","AreaCode":"330701000000","ZipCode":"321000","CityCode":"0579","Name":"市辖区","ShortName":"金华","MergerName":"浙江,金华","Pinyin":"JinHua","Lng":"119.647444","Lat":"29.079059"},"海南":{"ID":"530468","ParentID":"529344","Level":"1","AreaCode":"469000000000","ZipCode":"570100","CityCode":"0898","Name":"直辖县","ShortName":"海南","MergerName":"海南","Pinyin":"HaiNan","Lng":"110.349228","Lat":"20.017377"},"海南,万宁":{"ID":"531148","ParentID":"530468","Level":"2","AreaCode":"469006000000","ZipCode":"571500","CityCode":"","Name":"万宁市","ShortName":"万宁","MergerName":"海南,万宁","Pinyin":"WanNing","Lng":"110.391075","Lat":"18.795143"},"海南,三亚":{"ID":"529879","ParentID":"529878","Level":"2","AreaCode":"460201000000","ZipCode":"572000","CityCode":"0899","Name":"市辖区","ShortName":"三亚","MergerName":"海南,三亚","Pinyin":"SanYa","Lng":"109.511909","Lat":"18.252847"},"海南,三沙":{"ID":"530060","ParentID":"529344","Level":"1","AreaCode":"460300000000","ZipCode":"573100","CityCode":"2898","Name":"三沙市","ShortName":"三沙","MergerName":"海南,三沙","Pinyin":"SanSha","Lng":"112.338695","Lat":"16.831839"},"海南,东方":{"ID":"531426","ParentID":"530468","Level":"2","AreaCode":"469007000000","ZipCode":"572600","CityCode":"","Name":"东方市","ShortName":"东方","MergerName":"海南,东方","Pinyin":"DongFang","Lng":"108.651817","Lat":"19.095350"},"海南,临高":{"ID":"532200","ParentID":"530468","Level":"2","AreaCode":"469024000000","ZipCode":"571800","CityCode":"","Name":"临高县","ShortName":"临高","MergerName":"海南,临高","Pinyin":"LinGao","Lng":"109.690508","Lat":"19.912026"},"海南,乐东":{"ID":"532672","ParentID":"530468","Level":"2","AreaCode":"469027000000","ZipCode":"572500","CityCode":"","Name":"乐东黎族自治县","ShortName":"乐东","MergerName":"海南,乐东","Pinyin":"LeDong","Lng":"109.173055","Lat":"18.750260"},"海南,五指山":{"ID":"530469","ParentID":"530468","Level":"2","AreaCode":"469001000000","ZipCode":"572200","CityCode":"","Name":"五指山市","ShortName":"五指山","MergerName":"海南,五指山","Pinyin":"WuZhiShan","Lng":"109.516922","Lat":"18.775146"},"海南,保亭":{"ID":"533053","ParentID":"530468","Level":"2","AreaCode":"469029000000","ZipCode":"572300","CityCode":"","Name":"保亭黎族苗族自治县","ShortName":"保亭","MergerName":"海南,保亭","Pinyin":"BaoTing","Lng":"109.702590","Lat":"18.639130"},"海南,儋州":{"ID":"530070","ParentID":"529344","Level":"1","AreaCode":"460400000000","ZipCode":"571700","CityCode":"0805","Name":"儋州市","ShortName":"儋州","MergerName":"海南,儋州","Pinyin":"DanZhou","Lng":"110.349228","Lat":"20.017377"},"海南,定安":{"ID":"531647","ParentID":"530468","Level":"2","AreaCode":"469021000000","ZipCode":"571200","CityCode":"","Name":"定安县","ShortName":"定安","MergerName":"海南,定安","Pinyin":"DingAn","Lng":"110.358891","Lat":"19.681434"},"海南,屯昌":{"ID":"531811","ParentID":"530468","Level":"2","AreaCode":"469022000000","ZipCode":"571600","CityCode":"","Name":"屯昌县","ShortName":"屯昌","MergerName":"海南,屯昌","Pinyin":"TunChang","Lng":"110.103415","Lat":"19.351766"},"海南,文昌":{"ID":"530809","ParentID":"530468","Level":"2","AreaCode":"469005000000","ZipCode":"571300","CityCode":"","Name":"文昌市","ShortName":"文昌","MergerName":"海南,文昌","Pinyin":"WenChang","Lng":"110.797714","Lat":"19.543423"},"海南,昌江":{"ID":"532558","ParentID":"530468","Level":"2","AreaCode":"469026000000","ZipCode":"572700","CityCode":"","Name":"昌江黎族自治县","ShortName":"昌江","MergerName":"海南,昌江","Pinyin":"ChangJiang","Lng":"109.055724","Lat":"19.298062"},"海南,海口":{"ID":"529346","ParentID":"529345","Level":"2","AreaCode":"460101000000","ZipCode":"570100","CityCode":"0898","Name":"市辖区","ShortName":"海口","MergerName":"海南,海口","Pinyin":"HaiKou","Lng":"110.198293","Lat":"20.044001"},"海南,澄迈":{"ID":"531971","ParentID":"530468","Level":"2","AreaCode":"469023000000","ZipCode":"571900","CityCode":"","Name":"澄迈县","ShortName":"澄迈","MergerName":"海南,澄迈","Pinyin":"ChengMai","Lng":"110.006755","Lat":"19.738521"},"海南,琼中":{"ID":"533161","ParentID":"530468","Level":"2","AreaCode":"469030000000","ZipCode":"572900","CityCode":"","Name":"琼中黎族苗族自治县","ShortName":"琼中","MergerName":"海南,琼中","Pinyin":"QiongZhong","Lng":"109.838389","Lat":"19.033369"},"海南,琼海":{"ID":"530552","ParentID":"530468","Level":"2","AreaCode":"469002000000","ZipCode":"571400","CityCode":"","Name":"琼海市","ShortName":"琼海","MergerName":"海南,琼海","Pinyin":"QiongHai","Lng":"110.474579","Lat":"19.259140"},"海南,白沙":{"ID":"532409","ParentID":"530468","Level":"2","AreaCode":"469025000000","ZipCode":"572800","CityCode":"","Name":"白沙黎族自治县","ShortName":"白沙","MergerName":"海南,白沙","Pinyin":"BaiSha","Lng":"109.451484","Lat":"19.224823"},"海南,陵水":{"ID":"532906","ParentID":"530468","Level":"2","AreaCode":"469028000000","ZipCode":"572400","CityCode":"","Name":"陵水黎族自治县","ShortName":"陵水","MergerName":"海南,陵水","Pinyin":"LingShui","Lng":"110.037504","Lat":"18.506048"},"湖北":{"ID":"449865","ParentID":"420824","Level":"1","AreaCode":"429000000000","ZipCode":"430000","CityCode":"027","Name":"直辖县","ShortName":"湖北","MergerName":"湖北","Pinyin":"HuBei","Lng":"114.341861","Lat":"30.546498"},"湖北,仙桃":{"ID":"449866","ParentID":"449865","Level":"2","AreaCode":"429004000000","ZipCode":"433000","CityCode":"","Name":"仙桃市","ShortName":"仙桃","MergerName":"湖北,仙桃","Pinyin":"XianTao","Lng":"113.442970","Lat":"30.328407"},"湖北,十堰":{"ID":"425509","ParentID":"425508","Level":"2","AreaCode":"420301000000","ZipCode":"442000","CityCode":"0719","Name":"市辖区","ShortName":"十堰","MergerName":"湖北,十堰","Pinyin":"ShiYan","Lng":"110.797990","Lat":"32.629397"},"湖北,咸宁":{"ID":"445041","ParentID":"445040","Level":"2","AreaCode":"421201000000","ZipCode":"437000","CityCode":"0715","Name":"市辖区","ShortName":"咸宁","MergerName":"湖北,咸宁","Pinyin":"XianNing","Lng":"114.322492","Lat":"29.841443"},"湖北,天门":{"ID":"451150","ParentID":"449865","Level":"2","AreaCode":"429006000000","ZipCode":"431700","CityCode":"","Name":"天门市","ShortName":"天门","MergerName":"湖北,天门","Pinyin":"TianMen","Lng":"113.166557","Lat":"30.663719"},"湖北,孝感":{"ID":"434549","ParentID":"434548","Level":"2","AreaCode":"420901000000","ZipCode":"432000","CityCode":"0712","Name":"市辖区","ShortName":"孝感","MergerName":"湖北,孝感","Pinyin":"XiaoGan","Lng":"113.916902","Lat":"30.924568"},"湖北,宜昌":{"ID":"427711","ParentID":"427710","Level":"2","AreaCode":"420501000000","ZipCode":"443000","CityCode":"0717","Name":"市辖区","ShortName":"宜昌","MergerName":"湖北,宜昌","Pinyin":"YiChang","Lng":"111.286471","Lat":"30.691967"},"湖北,恩施":{"ID":"447268","ParentID":"420824","Level":"1","AreaCode":"422800000000","ZipCode":"445000","CityCode":"0718","Name":"恩施土家族苗族自治州","ShortName":"恩施","MergerName":"湖北,恩施","Pinyin":"EnShi","Lng":"109.488172","Lat":"30.272156"},"湖北,武汉":{"ID":"420826","ParentID":"420825","Level":"2","AreaCode":"420101000000","ZipCode":"430000","CityCode":"027","Name":"市辖区","ShortName":"武汉","MergerName":"湖北,武汉","Pinyin":"WuHan","Lng":"114.305392","Lat":"30.593098"},"湖北,潜江":{"ID":"450653","ParentID":"449865","Level":"2","AreaCode":"429005000000","ZipCode":"433100","CityCode":"","Name":"潜江市","ShortName":"潜江","MergerName":"湖北,潜江","Pinyin":"QianJiang","Lng":"112.900284","Lat":"30.401947"},"湖北,神农架林":{"ID":"452034","ParentID":"449865","Level":"2","AreaCode":"429021000000","ZipCode":"442400","CityCode":"","Name":"神农架林区","ShortName":"神农架林","MergerName":"湖北,神农架林","Pinyin":"ShenNongJiaLin","Lng":"110.675758","Lat":"31.744898"},"湖北,荆州":{"ID":"437780","ParentID":"437779","Level":"2","AreaCode":"421001000000","ZipCode":"434000","CityCode":"0716","Name":"市辖区","ShortName":"荆州","MergerName":"湖北,荆州","Pinyin":"JingZhou","Lng":"112.239741","Lat":"30.335165"},"湖北,荆门":{"ID":"432830","ParentID":"432829","Level":"2","AreaCode":"420801000000","ZipCode":"448000","CityCode":"0724","Name":"市辖区","ShortName":"荆门","MergerName":"湖北,荆门","Pinyin":"JingMen","Lng":"112.199265","Lat":"31.035423"},"湖北,襄阳":{"ID":"429502","ParentID":"429501","Level":"2","AreaCode":"420601000000","ZipCode":"441000","CityCode":"0710","Name":"市辖区","ShortName":"襄阳","MergerName":"湖北,襄阳","Pinyin":"XiangYang","Lng":"112.122414","Lat":"32.008986"},"湖北,鄂州":{"ID":"432416","ParentID":"432415","Level":"2","AreaCode":"420701000000","ZipCode":"436000","CityCode":"0711","Name":"市辖区","ShortName":"鄂州","MergerName":"湖北,鄂州","Pinyin":"EZhou","Lng":"114.894843","Lat":"30.391940"},"湖北,随州":{"ID":"446213","ParentID":"446212","Level":"2","AreaCode":"421301000000","ZipCode":"441300","CityCode":"0722","Name":"市辖区","ShortName":"随州","MergerName":"湖北,随州","Pinyin":"SuiZhou","Lng":"113.382458","Lat":"31.690215"},"湖北,黄冈":{"ID":"440640","ParentID":"440639","Level":"2","AreaCode":"421101000000","ZipCode":"438000","CityCode":"0713","Name":"市辖区","ShortName":"黄冈","MergerName":"湖北,黄冈","Pinyin":"HuangGang","Lng":"114.872316","Lat":"30.453905"},"湖北,黄石":{"ID":"424450","ParentID":"424449","Level":"2","AreaCode":"420201000000","ZipCode":"435000","CityCode":"0714","Name":"市辖区","ShortName":"黄石","MergerName":"湖北,黄石","Pinyin":"HuangShi","Lng":"115.038520","Lat":"30.199652"},"湖南":{"ID":"452123","ParentID":"0","Level":"0","AreaCode":"430000000000","ZipCode":"000000","CityCode":"","Name":"湖南省","ShortName":"湖南","MergerName":"湖南","Pinyin":"HuNan","Lng":"112.983810","Lat":"28.112444"},"湖南,娄底":{"ID":"479104","ParentID":"479103","Level":"2","AreaCode":"431301000000","ZipCode":"417000","CityCode":"0738","Name":"市辖区","ShortName":"娄底","MergerName":"湖南,娄底","Pinyin":"LouDi","Lng":"111.993497","Lat":"27.700062"},"湖南,岳阳":{"ID":"463142","ParentID":"463141","Level":"2","AreaCode":"430601000000","ZipCode":"414000","CityCode":"0730","Name":"市辖区","ShortName":"岳阳","MergerName":"湖南,岳阳","Pinyin":"YueYang","Lng":"113.128958","Lat":"29.357104"},"湖南,常德":{"ID":"465106","ParentID":"465105","Level":"2","AreaCode":"430701000000","ZipCode":"415000","CityCode":"0736","Name":"市辖区","ShortName":"常德","MergerName":"湖南,常德","Pinyin":"ChangDe","Lng":"111.698497","Lat":"29.031673"},"湖南,张家界":{"ID":"467563","ParentID":"467562","Level":"2","AreaCode":"430801000000","ZipCode":"427000","CityCode":"0744","Name":"市辖区","ShortName":"张家界","MergerName":"湖南,张家界","Pinyin":"ZhangJiaJie","Lng":"110.479191","Lat":"29.117096"},"湖南,怀化":{"ID":"476149","ParentID":"476148","Level":"2","AreaCode":"431201000000","ZipCode":"418000","CityCode":"0745","Name":"市辖区","ShortName":"怀化","MergerName":"湖南,怀化","Pinyin":"HuaiHua","Lng":"109.998488","Lat":"27.554978"},"湖南,株洲":{"ID":"453800","ParentID":"453799","Level":"2","AreaCode":"430201000000","ZipCode":"412000","CityCode":"0733","Name":"市辖区","ShortName":"株洲","MergerName":"湖南,株洲","Pinyin":"ZhuZhou","Lng":"113.134002","Lat":"27.827550"},"湖南,永州":{"ID":"472710","ParentID":"472709","Level":"2","AreaCode":"431101000000","ZipCode":"425000","CityCode":"0746","Name":"市辖区","ShortName":"永州","MergerName":"湖南,永州","Pinyin":"YongZhou","Lng":"111.613445","Lat":"26.420394"},"湖南,湘潭":{"ID":"455284","ParentID":"455283","Level":"2","AreaCode":"430301000000","ZipCode":"411100","CityCode":"0732","Name":"市辖区","ShortName":"湘潭","MergerName":"湖南,湘潭","Pinyin":"XiangTan","Lng":"112.944049","Lat":"27.829738"},"湖南,湘西":{"ID":"481319","ParentID":"452123","Level":"1","AreaCode":"433100000000","ZipCode":"416000","CityCode":"0743","Name":"湘西土家族苗族自治州","ShortName":"湘西","MergerName":"湖南,湘西","Pinyin":"XiangXi","Lng":"109.739172","Lat":"28.311947"},"湖南,益阳":{"ID":"468661","ParentID":"468660","Level":"2","AreaCode":"430901000000","ZipCode":"413000","CityCode":"0737","Name":"市辖区","ShortName":"益阳","MergerName":"湖南,益阳","Pinyin":"YiYang","Lng":"112.355180","Lat":"28.553860"},"湖南,衡阳":{"ID":"456304","ParentID":"456303","Level":"2","AreaCode":"430401000000","ZipCode":"421000","CityCode":"0734","Name":"市辖区","ShortName":"衡阳","MergerName":"湖南,衡阳","Pinyin":"HengYang","Lng":"112.571997","Lat":"26.893230"},"湖南,邵阳":{"ID":"459252","ParentID":"459251","Level":"2","AreaCode":"430501000000","ZipCode":"422000","CityCode":"0739","Name":"市辖区","ShortName":"邵阳","MergerName":"湖南,邵阳","Pinyin":"ShaoYang","Lng":"111.467791","Lat":"27.238892"},"湖南,郴州":{"ID":"470124","ParentID":"470123","Level":"2","AreaCode":"431001000000","ZipCode":"423000","CityCode":"0735","Name":"市辖区","ShortName":"郴州","MergerName":"湖南,郴州","Pinyin":"ChenZhou","Lng":"113.014717","Lat":"25.770509"},"湖南,长沙":{"ID":"452125","ParentID":"452124","Level":"2","AreaCode":"430101000000","ZipCode":"410000","CityCode":"0731","Name":"市辖区","ShortName":"长沙","MergerName":"湖南,长沙","Pinyin":"ChangSha","Lng":"112.938814","Lat":"28.228209"},"澳门":{"ID":"714390","ParentID":"0","Level":"0","AreaCode":"0","ZipCode":"999078","CityCode":"00853","Name":"澳门特别行政区","ShortName":"澳门","MergerName":"澳门","Pinyin":"Macau","Lng":"113.549090","Lat":"22.198951"},"澳门,氹仔岛":{"ID":"714397","ParentID":"714390","Level":"1","AreaCode":"0","ZipCode":"999078","CityCode":"00853","Name":"氹仔岛","ShortName":"氹仔岛","MergerName":"澳门,氹仔岛","Pinyin":"Taipa","Lng":"113.577669","Lat":"22.156838"},"澳门,澳门半岛":{"ID":"714391","ParentID":"714390","Level":"1","AreaCode":"0","ZipCode":"999078","CityCode":"00853","Name":"澳门半岛","ShortName":"澳门半岛","MergerName":"澳门,澳门半岛","Pinyin":"MacauPeninsula","Lng":"113.549134","Lat":"22.198751"},"甘肃":{"ID":"671119","ParentID":"0","Level":"0","AreaCode":"620000000000","ZipCode":"000000","CityCode":"","Name":"甘肃省","ShortName":"甘肃","MergerName":"甘肃","Pinyin":"GanSu","Lng":"103.826308","Lat":"36.059421"},"甘肃,临夏":{"ID":"687916","ParentID":"671119","Level":"1","AreaCode":"622900000000","ZipCode":"731100","CityCode":"0930","Name":"临夏回族自治州","ShortName":"临夏","MergerName":"甘肃,临夏","Pinyin":"LinXia","Lng":"103.210538","Lat":"35.601182"},"甘肃,兰州":{"ID":"671121","ParentID":"671120","Level":"2","AreaCode":"620101000000","ZipCode":"730000","CityCode":"0931","Name":"市辖区","ShortName":"兰州","MergerName":"甘肃,兰州","Pinyin":"LanZhou","Lng":"103.834303","Lat":"36.061089"},"甘肃,嘉峪关":{"ID":"672331","ParentID":"672330","Level":"2","AreaCode":"620201000000","ZipCode":"735100","CityCode":"1937","Name":"市辖区","ShortName":"嘉峪关","MergerName":"甘肃,嘉峪关","Pinyin":"JiaYuGuan","Lng":"98.289152","Lat":"39.773130"},"甘肃,天水":{"ID":"673464","ParentID":"673463","Level":"2","AreaCode":"620501000000","ZipCode":"741000","CityCode":"0938","Name":"市辖区","ShortName":"天水","MergerName":"甘肃,天水","Pinyin":"TianShui","Lng":"105.724947","Lat":"34.580863"},"甘肃,定西":{"ID":"682323","ParentID":"682322","Level":"2","AreaCode":"621101000000","ZipCode":"743000","CityCode":"0932","Name":"市辖区","ShortName":"定西","MergerName":"甘肃,定西","Pinyin":"DingXi","Lng":"104.626282","Lat":"35.580662"},"甘肃,平凉":{"ID":"678561","ParentID":"678560","Level":"2","AreaCode":"620801000000","ZipCode":"744000","CityCode":"0933","Name":"市辖区","ShortName":"平凉","MergerName":"甘肃,平凉","Pinyin":"PingLiang","Lng":"106.665240","Lat":"35.543051"},"甘肃,庆阳":{"ID":"680816","ParentID":"680815","Level":"2","AreaCode":"621001000000","ZipCode":"745000","CityCode":"0934","Name":"市辖区","ShortName":"庆阳","MergerName":"甘肃,庆阳","Pinyin":"QingYang","Lng":"107.643631","Lat":"35.709077"},"甘肃,张掖":{"ID":"677569","ParentID":"677568","Level":"2","AreaCode":"620701000000","ZipCode":"734000","CityCode":"0936","Name":"市辖区","ShortName":"张掖","MergerName":"甘肃,张掖","Pinyin":"ZhangYe","Lng":"100.449818","Lat":"38.925875"},"甘肃,武威":{"ID":"676216","ParentID":"676215","Level":"2","AreaCode":"620601000000","ZipCode":"733000","CityCode":"1935","Name":"市辖区","ShortName":"武威","MergerName":"甘肃,武威","Pinyin":"WuWei","Lng":"102.638011","Lat":"37.928264"},"甘肃,甘南":{"ID":"689265","ParentID":"671119","Level":"1","AreaCode":"623000000000","ZipCode":"747000","CityCode":"0941","Name":"甘南藏族自治州","ShortName":"甘南","MergerName":"甘肃,甘南","Pinyin":"GanNan","Lng":"102.911027","Lat":"34.983385"},"甘肃,白银":{"ID":"672578","ParentID":"672577","Level":"2","AreaCode":"620401000000","ZipCode":"730900","CityCode":"0943","Name":"市辖区","ShortName":"白银","MergerName":"甘肃,白银","Pinyin":"BaiYin","Lng":"104.138559","Lat":"36.544756"},"甘肃,酒泉":{"ID":"680192","ParentID":"680191","Level":"2","AreaCode":"620901000000","ZipCode":"735000","CityCode":"0937","Name":"市辖区","ShortName":"酒泉","MergerName":"甘肃,酒泉","Pinyin":"JiuQuan","Lng":"98.494483","Lat":"39.732410"},"甘肃,金昌":{"ID":"672386","ParentID":"672385","Level":"2","AreaCode":"620301000000","ZipCode":"737100","CityCode":"0935","Name":"市辖区","ShortName":"金昌","MergerName":"甘肃,金昌","Pinyin":"JinChang","Lng":"102.188043","Lat":"38.520089"},"甘肃,陇南":{"ID":"684416","ParentID":"684415","Level":"2","AreaCode":"621201000000","ZipCode":"742500","CityCode":"2935","Name":"市辖区","ShortName":"陇南","MergerName":"甘肃,陇南","Pinyin":"LongNan","Lng":"104.921841","Lat":"33.400684"},"福建":{"ID":"244377","ParentID":"0","Level":"0","AreaCode":"350000000000","ZipCode":"000000","CityCode":"","Name":"福建省","ShortName":"福建","MergerName":"福建","Pinyin":"FuJian","Lng":"119.295144","Lat":"26.100779"},"福建,三明":{"ID":"249099","ParentID":"249098","Level":"2","AreaCode":"350401000000","ZipCode":"365000","CityCode":"0598","Name":"市辖区","ShortName":"三明","MergerName":"福建,三明","Pinyin":"SanMing","Lng":"117.638678","Lat":"26.263406"},"福建,南平":{"ID":"256113","ParentID":"256112","Level":"2","AreaCode":"350701000000","ZipCode":"353000","CityCode":"0599","Name":"市辖区","ShortName":"南平","MergerName":"福建,南平","Pinyin":"NanPing","Lng":"118.177708","Lat":"26.641768"},"福建,厦门":{"ID":"247479","ParentID":"247478","Level":"2","AreaCode":"350201000000","ZipCode":"361000","CityCode":"0592","Name":"市辖区","ShortName":"厦门","MergerName":"福建,厦门","Pinyin":"XiaMen","Lng":"118.089425","Lat":"24.479833"},"福建,宁德":{"ID":"260231","ParentID":"260230","Level":"2","AreaCode":"350901000000","ZipCode":"352000","CityCode":"0593","Name":"市辖区","ShortName":"宁德","MergerName":"福建,宁德","Pinyin":"NingDe","Lng":"119.547932","Lat":"26.665617"},"福建,泉州":{"ID":"251198","ParentID":"251197","Level":"2","AreaCode":"350501000000","ZipCode":"362000","CityCode":"0595","Name":"市辖区","ShortName":"泉州","MergerName":"福建,泉州","Pinyin":"QuanZhou","Lng":"118.675675","Lat":"24.874132"},"福建,漳州":{"ID":"253906","ParentID":"253905","Level":"2","AreaCode":"350601000000","ZipCode":"363000","CityCode":"0596","Name":"市辖区","ShortName":"漳州","MergerName":"福建,漳州","Pinyin":"ZhangZhou","Lng":"117.647481","Lat":"24.512948"},"福建,福州":{"ID":"244379","ParentID":"244378","Level":"2","AreaCode":"350101000000","ZipCode":"350000","CityCode":"0591","Name":"市辖区","ShortName":"福州","MergerName":"福建,福州","Pinyin":"FuZhou","Lng":"119.296494","Lat":"26.074507"},"福建,莆田":{"ID":"248060","ParentID":"248059","Level":"2","AreaCode":"350301000000","ZipCode":"351100","CityCode":"0594","Name":"市辖区","ShortName":"莆田","MergerName":"福建,莆田","Pinyin":"PuTian","Lng":"119.007777","Lat":"25.454084"},"福建,龙岩":{"ID":"258161","ParentID":"258160","Level":"2","AreaCode":"350801000000","ZipCode":"364000","CityCode":"0597","Name":"市辖区","ShortName":"龙岩","MergerName":"福建,龙岩","Pinyin":"LongYan","Lng":"117.017536","Lat":"25.075123"},"西藏":{"ID":"640332","ParentID":"0","Level":"0","AreaCode":"540000000000","ZipCode":"000000","CityCode":"","Name":"西藏自治区","ShortName":"西藏","MergerName":"西藏","Pinyin":"XiZang","Lng":"91.117212","Lat":"29.646922"},"西藏,山南":{"ID":"644424","ParentID":"644423","Level":"2","AreaCode":"540501000000","ZipCode":"856000","CityCode":"0893","Name":"市辖区","ShortName":"山南","MergerName":"西藏,山南","Pinyin":"ShanNan","Lng":"91.117212","Lat":"29.646922"},"西藏,拉萨":{"ID":"640334","ParentID":"640333","Level":"2","AreaCode":"540101000000","ZipCode":"850000","CityCode":"0891","Name":"市辖区","ShortName":"拉萨","MergerName":"西藏,拉萨","Pinyin":"LaSa","Lng":"91.140856","Lat":"29.645554"},"西藏,日喀则":{"ID":"640675","ParentID":"640332","Level":"1","AreaCode":"540200000000","ZipCode":"857000","CityCode":"0892","Name":"日喀则市","ShortName":"日喀则","MergerName":"西藏,日喀则","Pinyin":"RiKaZe","Lng":"88.880583","Lat":"29.266869"},"西藏,昌都":{"ID":"642571","ParentID":"640332","Level":"1","AreaCode":"540300000000","ZipCode":"854000","CityCode":"0895","Name":"昌都市","ShortName":"昌都","MergerName":"西藏,昌都","Pinyin":"ChangDu","Lng":"97.172020","Lat":"31.140969"},"西藏,林芝":{"ID":"643863","ParentID":"640332","Level":"1","AreaCode":"540400000000","ZipCode":"860000","CityCode":"0894","Name":"林芝市","ShortName":"林芝","MergerName":"西藏,林芝","Pinyin":"LinZhi","Lng":"94.361490","Lat":"29.649128"},"西藏,那曲":{"ID":"645076","ParentID":"640332","Level":"1","AreaCode":"542400000000","ZipCode":"852000","CityCode":"0896","Name":"那曲地区","ShortName":"那曲","MergerName":"西藏,那曲","Pinyin":"NaQu","Lng":"92.051239","Lat":"31.476202"},"西藏,阿里":{"ID":"646392","ParentID":"640332","Level":"1","AreaCode":"542500000000","ZipCode":"859000","CityCode":"0897","Name":"阿里地区","ShortName":"阿里","MergerName":"西藏,阿里","Pinyin":"ALi","Lng":"80.105804","Lat":"32.501111"},"贵州":{"ID":"604131","ParentID":"0","Level":"0","AreaCode":"520000000000","ZipCode":"000000","CityCode":"","Name":"贵州省","ShortName":"贵州","MergerName":"贵州","Pinyin":"GuiZhou","Lng":"106.707410","Lat":"26.598194"},"贵州,六盘水":{"ID":"605834","ParentID":"604131","Level":"1","AreaCode":"520200000000","ZipCode":"553000","CityCode":"0858","Name":"六盘水市","ShortName":"六盘水","MergerName":"贵州,六盘水","Pinyin":"LiuPanShui","Lng":"104.830359","Lat":"26.592666"},"贵州,安顺":{"ID":"609310","ParentID":"609309","Level":"2","AreaCode":"520401000000","ZipCode":"561000","CityCode":"0853","Name":"市辖区","ShortName":"安顺","MergerName":"贵州,安顺","Pinyin":"AnShun","Lng":"105.947593","Lat":"26.253072"},"贵州,毕节":{"ID":"610608","ParentID":"610607","Level":"2","AreaCode":"520501000000","ZipCode":"551700","CityCode":"0857","Name":"市辖区","ShortName":"毕节","MergerName":"贵州,毕节","Pinyin":"BiJie","Lng":"105.283992","Lat":"27.302589"},"贵州,贵阳":{"ID":"604133","ParentID":"604132","Level":"2","AreaCode":"520101000000","ZipCode":"550000","CityCode":"0851","Name":"市辖区","ShortName":"贵阳","MergerName":"贵州,贵阳","Pinyin":"GuiYang","Lng":"106.630153","Lat":"26.647661"},"贵州,遵义":{"ID":"607030","ParentID":"607029","Level":"2","AreaCode":"520301000000","ZipCode":"563000","CityCode":"0852","Name":"市辖区","ShortName":"遵义","MergerName":"贵州,遵义","Pinyin":"ZunYi","Lng":"106.927389","Lat":"27.725654"},"贵州,铜仁":{"ID":"614531","ParentID":"614530","Level":"2","AreaCode":"520601000000","ZipCode":"554300","CityCode":"0856","Name":"市辖区","ShortName":"铜仁","MergerName":"贵州,铜仁","Pinyin":"TongRen","Lng":"109.189598","Lat":"27.731514"},"贵州,黔东南":{"ID":"619017","ParentID":"604131","Level":"1","AreaCode":"522600000000","ZipCode":"556000","CityCode":"0855","Name":"黔东南苗族侗族自治州","ShortName":"黔东南","MergerName":"贵州,黔东南","Pinyin":"QianDongNan","Lng":"107.982859","Lat":"26.583442"},"贵州,黔南":{"ID":"622734","ParentID":"604131","Level":"1","AreaCode":"522700000000","ZipCode":"558000","CityCode":"0854","Name":"黔南布依族苗族自治州","ShortName":"黔南","MergerName":"贵州,黔南","Pinyin":"QianNan","Lng":"107.522097","Lat":"26.254092"},"贵州,黔西南":{"ID":"617670","ParentID":"604131","Level":"1","AreaCode":"522300000000","ZipCode":"562400","CityCode":"0859","Name":"黔西南布依族苗族自治州","ShortName":"黔西南","MergerName":"贵州,黔西南","Pinyin":"QianXiNan","Lng":"104.906396","Lat":"25.087825"},"辽宁":{"ID":"115224","ParentID":"0","Level":"0","AreaCode":"210000000000","ZipCode":"000000","CityCode":"","Name":"辽宁省","ShortName":"辽宁","MergerName":"辽宁","Pinyin":"LiaoNing","Lng":"123.429440","Lat":"41.835441"},"辽宁,丹东":{"ID":"122731","ParentID":"122730","Level":"2","AreaCode":"210601000000","ZipCode":"118000","CityCode":"0415","Name":"市辖区","ShortName":"丹东","MergerName":"辽宁,丹东","Pinyin":"DanDong","Lng":"124.354706","Lat":"40.000499"},"辽宁,大连":{"ID":"117933","ParentID":"117932","Level":"2","AreaCode":"210201000000","ZipCode":"116000","CityCode":"0411","Name":"市辖区","ShortName":"大连","MergerName":"辽宁,大连","Pinyin":"DaLian","Lng":"121.614682","Lat":"38.914003"},"辽宁,抚顺":{"ID":"121082","ParentID":"121081","Level":"2","AreaCode":"210401000000","ZipCode":"113000","CityCode":"0413","Name":"市辖区","ShortName":"抚顺","MergerName":"辽宁,抚顺","Pinyin":"FuShun","Lng":"123.957208","Lat":"41.880872"},"辽宁,朝阳":{"ID":"129978","ParentID":"129977","Level":"2","AreaCode":"211301000000","ZipCode":"122000","CityCode":"0421","Name":"市辖区","ShortName":"朝阳","MergerName":"辽宁,朝阳","Pinyin":"ZhaoYang","Lng":"120.389862","Lat":"41.497767"},"辽宁,本溪":{"ID":"122143","ParentID":"122142","Level":"2","AreaCode":"210501000000","ZipCode":"117000","CityCode":"0414","Name":"市辖区","ShortName":"本溪","MergerName":"辽宁,本溪","Pinyin":"BenXi","Lng":"123.766485","Lat":"41.294175"},"辽宁,沈阳":{"ID":"115226","ParentID":"115225","Level":"2","AreaCode":"210101000000","ZipCode":"110000","CityCode":"024","Name":"市辖区","ShortName":"沈阳","MergerName":"辽宁,沈阳","Pinyin":"ShenYang","Lng":"123.431474","Lat":"41.805698"},"辽宁,盘锦":{"ID":"127835","ParentID":"127834","Level":"2","AreaCode":"211101000000","ZipCode":"124000","CityCode":"0427","Name":"市辖区","ShortName":"盘锦","MergerName":"辽宁,盘锦","Pinyin":"PanJin","Lng":"122.070714","Lat":"41.119997"},"辽宁,营口":{"ID":"125250","ParentID":"125249","Level":"2","AreaCode":"210801000000","ZipCode":"115000","CityCode":"0417","Name":"市辖区","ShortName":"营口","MergerName":"辽宁,营口","Pinyin":"YingKou","Lng":"122.235417","Lat":"40.667012"},"辽宁,葫芦岛":{"ID":"131739","ParentID":"131738","Level":"2","AreaCode":"211401000000","ZipCode":"125000","CityCode":"0429","Name":"市辖区","ShortName":"葫芦岛","MergerName":"辽宁,葫芦岛","Pinyin":"HuLuDao","Lng":"120.836932","Lat":"40.711052"},"辽宁,辽阳":{"ID":"127071","ParentID":"127070","Level":"2","AreaCode":"211001000000","ZipCode":"111000","CityCode":"0419","Name":"市辖区","ShortName":"辽阳","MergerName":"辽宁,辽阳","Pinyin":"LiaoYang","Lng":"123.236944","Lat":"41.267244"},"辽宁,铁岭":{"ID":"128422","ParentID":"128421","Level":"2","AreaCode":"211201000000","ZipCode":"112000","CityCode":"0410","Name":"市辖区","ShortName":"铁岭","MergerName":"辽宁,铁岭","Pinyin":"TieLing","Lng":"123.726166","Lat":"42.223769"},"辽宁,锦州":{"ID":"123699","ParentID":"123698","Level":"2","AreaCode":"210701000000","ZipCode":"121000","CityCode":"0416","Name":"市辖区","ShortName":"锦州","MergerName":"辽宁,锦州","Pinyin":"JinZhou","Lng":"121.127003","Lat":"41.095119"},"辽宁,阜新":{"ID":"126157","ParentID":"126156","Level":"2","AreaCode":"210901000000","ZipCode":"123000","CityCode":"0418","Name":"市辖区","ShortName":"阜新","MergerName":"辽宁,阜新","Pinyin":"FuXin","Lng":"121.670323","Lat":"42.021619"},"辽宁,鞍山":{"ID":"119790","ParentID":"119789","Level":"2","AreaCode":"210301000000","ZipCode":"114000","CityCode":"0412","Name":"市辖区","ShortName":"鞍山","MergerName":"辽宁,鞍山","Pinyin":"AnShan","Lng":"122.994329","Lat":"41.108647"},"重庆":{"ID":"540700","ParentID":"533328","Level":"1","AreaCode":"500200000000","ZipCode":"404100","CityCode":"023","Name":"直辖县","ShortName":"重庆","MergerName":"重庆","Pinyin":"ChongQing","Lng":"106.551556","Lat":"29.563009"},"重庆,万州":{"ID":"533330","ParentID":"533329","Level":"2","AreaCode":"500101000000","ZipCode":"404100","CityCode":"023","Name":"万州区","ShortName":"万州","MergerName":"重庆,万州","Pinyin":"WanZhou","Lng":"108.408661","Lat":"30.807667"},"重庆,丰都":{"ID":"541310","ParentID":"540700","Level":"2","AreaCode":"500230000000","ZipCode":"408200","CityCode":"023","Name":"丰都县","ShortName":"丰都","MergerName":"重庆,丰都","Pinyin":"FengDu","Lng":"107.730895","Lat":"29.863500"},"重庆,九龙坡":{"ID":"535021","ParentID":"533329","Level":"2","AreaCode":"500107000000","ZipCode":"400000","CityCode":"023","Name":"九龙坡区","ShortName":"九龙坡","MergerName":"重庆,九龙坡","Pinyin":"JiuLongPo","Lng":"106.510676","Lat":"29.502272"},"重庆,云阳":{"ID":"542631","ParentID":"540700","Level":"2","AreaCode":"500235000000","ZipCode":"404500","CityCode":"023","Name":"云阳县","ShortName":"云阳","MergerName":"重庆,云阳","Pinyin":"YunYang","Lng":"108.697324","Lat":"30.930613"},"重庆,北碚":{"ID":"535428","ParentID":"533329","Level":"2","AreaCode":"500109000000","ZipCode":"400700","CityCode":"023","Name":"北碚区","ShortName":"北碚","MergerName":"重庆,北碚","Pinyin":"BeiBei","Lng":"106.395612","Lat":"29.805108"},"重庆,南岸":{"ID":"535262","ParentID":"533329","Level":"2","AreaCode":"500108000000","ZipCode":"400000","CityCode":"023","Name":"南岸区","ShortName":"南岸","MergerName":"重庆,南岸","Pinyin":"NanAn","Lng":"106.644428","Lat":"29.500297"},"重庆,南川":{"ID":"538778","ParentID":"533329","Level":"2","AreaCode":"500119000000","ZipCode":"408400","CityCode":"023","Name":"南川区","ShortName":"南川","MergerName":"重庆,南川","Pinyin":"NanChuan","Lng":"107.099266","Lat":"29.157891"},"重庆,合川":{"ID":"538050","ParentID":"533329","Level":"2","AreaCode":"500117000000","ZipCode":"401520","CityCode":"023","Name":"合川区","ShortName":"合川","MergerName":"重庆,合川","Pinyin":"HeChuan","Lng":"106.276130","Lat":"29.972084"},"重庆,垫江":{"ID":"541671","ParentID":"540700","Level":"2","AreaCode":"500231000000","ZipCode":"408300","CityCode":"023","Name":"垫江县","ShortName":"垫江","MergerName":"重庆,垫江","Pinyin":"DianJiang","Lng":"107.333390","Lat":"30.327717"},"重庆,城口":{"ID":"541080","ParentID":"540700","Level":"2","AreaCode":"500229000000","ZipCode":"405900","CityCode":"023","Name":"城口县","ShortName":"城口","MergerName":"重庆,城口","Pinyin":"ChengKou","Lng":"108.664214","Lat":"31.947633"},"重庆,大渡口":{"ID":"534558","ParentID":"533329","Level":"2","AreaCode":"500104000000","ZipCode":"400000","CityCode":"023","Name":"大渡口区","ShortName":"大渡口","MergerName":"重庆,大渡口","Pinyin":"DaDuKou","Lng":"106.482347","Lat":"29.484527"},"重庆,大足":{"ID":"536131","ParentID":"533329","Level":"2","AreaCode":"500111000000","ZipCode":"400900","CityCode":"023","Name":"大足区","ShortName":"大足","MergerName":"重庆,大足","Pinyin":"DaZu","Lng":"105.721733","Lat":"29.707032"},"重庆,奉节":{"ID":"543152","ParentID":"540700","Level":"2","AreaCode":"500236000000","ZipCode":"404600","CityCode":"023","Name":"奉节县","ShortName":"奉节","MergerName":"重庆,奉节","Pinyin":"FengJie","Lng":"109.463987","Lat":"31.018498"},"重庆,巫山":{"ID":"543575","ParentID":"540700","Level":"2","AreaCode":"500237000000","ZipCode":"404700","CityCode":"023","Name":"巫山县","ShortName":"巫山","MergerName":"重庆,巫山","Pinyin":"WuShan","Lng":"109.879153","Lat":"31.074834"},"重庆,巫溪":{"ID":"543943","ParentID":"540700","Level":"2","AreaCode":"500238000000","ZipCode":"405800","CityCode":"023","Name":"巫溪县","ShortName":"巫溪","MergerName":"重庆,巫溪","Pinyin":"WuXi","Lng":"109.570062","Lat":"31.398604"},"重庆,巴南":{"ID":"536890","ParentID":"533329","Level":"2","AreaCode":"500113000000","ZipCode":"401320","CityCode":"023","Name":"巴南区","ShortName":"巴南","MergerName":"重庆,巴南","Pinyin":"BaNan","Lng":"106.540257","Lat":"29.402408"},"重庆,开州":{"ID":"540131","ParentID":"533329","Level":"2","AreaCode":"500154000000","ZipCode":"405499","CityCode":"023","Name":"开州区","ShortName":"开州","MergerName":"重庆,开州","Pinyin":"KaiZhou","Lng":"106.551556","Lat":"29.563009"},"重庆,彭水":{"ID":"545196","ParentID":"540700","Level":"2","AreaCode":"500243000000","ZipCode":"409600","CityCode":"023","Name":"彭水苗族土家族自治县","ShortName":"彭水","MergerName":"重庆,彭水","Pinyin":"PengShui","Lng":"108.165538","Lat":"29.293902"},"重庆,忠县":{"ID":"542236","ParentID":"540700","Level":"2","AreaCode":"500233000000","ZipCode":"404300","CityCode":"023","Name":"忠县","ShortName":"忠县","MergerName":"重庆,忠县","Pinyin":"ZhongXian","Lng":"108.039002","Lat":"30.299560"},"重庆,梁平":{"ID":"540701","ParentID":"540700","Level":"2","AreaCode":"500228000000","ZipCode":"405200","CityCode":"023","Name":"梁平县","ShortName":"梁平","MergerName":"重庆,梁平","Pinyin":"LiangPing","Lng":"107.769312","Lat":"30.654203"},"重庆,武隆":{"ID":"541999","ParentID":"540700","Level":"2","AreaCode":"500232000000","ZipCode":"408500","CityCode":"023","Name":"武隆县","ShortName":"武隆","MergerName":"重庆,武隆","Pinyin":"WuLong","Lng":"107.760025","Lat":"29.325601"},"重庆,永川":{"ID":"538493","ParentID":"533329","Level":"2","AreaCode":"500118000000","ZipCode":"402100","CityCode":"023","Name":"永川区","ShortName":"永川","MergerName":"重庆,永川","Pinyin":"YongChuan","Lng":"105.927376","Lat":"29.356117"},"重庆,江北":{"ID":"534656","ParentID":"533329","Level":"2","AreaCode":"500105000000","ZipCode":"400000","CityCode":"023","Name":"江北区","ShortName":"江北","MergerName":"重庆,江北","Pinyin":"JiangBei","Lng":"106.574271","Lat":"29.606703"},"重庆,江津":{"ID":"537745","ParentID":"533329","Level":"2","AreaCode":"500116000000","ZipCode":"402260","CityCode":"023","Name":"江津区","ShortName":"江津","MergerName":"重庆,江津","Pinyin":"JiangJin","Lng":"106.259281","Lat":"29.290069"},"重庆,沙坪坝":{"ID":"534799","ParentID":"533329","Level":"2","AreaCode":"500106000000","ZipCode":"400000","CityCode":"023","Name":"沙坪坝区","ShortName":"沙坪坝","MergerName":"重庆,沙坪坝","Pinyin":"ShaPingBa","Lng":"106.456878","Lat":"29.541145"},"重庆,涪陵":{"ID":"534019","ParentID":"533329","Level":"2","AreaCode":"500102000000","ZipCode":"408000","CityCode":"023","Name":"涪陵区","ShortName":"涪陵","MergerName":"重庆,涪陵","Pinyin":"FuLing","Lng":"107.389298","Lat":"29.703113"},"重庆,渝中":{"ID":"534468","ParentID":"533329","Level":"2","AreaCode":"500103000000","ZipCode":"400000","CityCode":"023","Name":"渝中区","ShortName":"渝中","MergerName":"重庆,渝中","Pinyin":"YuZhong","Lng":"106.568892","Lat":"29.552750"},"重庆,渝北":{"ID":"536468","ParentID":"533329","Level":"2","AreaCode":"500112000000","ZipCode":"401120","CityCode":"023","Name":"渝北区","ShortName":"渝北","MergerName":"重庆,渝北","Pinyin":"YuBei","Lng":"106.631187","Lat":"29.718143"},"重庆,潼南":{"ID":"539615","ParentID":"533329","Level":"2","AreaCode":"500152000000","ZipCode":"402660","CityCode":"023","Name":"潼南区","ShortName":"潼南","MergerName":"重庆,潼南","Pinyin":"TongNan","Lng":"105.840556","Lat":"30.191013"},"重庆,璧山":{"ID":"539057","ParentID":"533329","Level":"2","AreaCode":"500120000000","ZipCode":"402760","CityCode":"023","Name":"璧山区","ShortName":"璧山","MergerName":"重庆,璧山","Pinyin":"BiShan","Lng":"106.227305","Lat":"29.592024"},"重庆,石柱":{"ID":"544307","ParentID":"540700","Level":"2","AreaCode":"500240000000","ZipCode":"409100","CityCode":"023","Name":"石柱土家族自治县","ShortName":"石柱","MergerName":"重庆,石柱","Pinyin":"ShiZhu","Lng":"108.114069","Lat":"29.999285"},"重庆,秀山":{"ID":"544583","ParentID":"540700","Level":"2","AreaCode":"500241000000","ZipCode":"409900","CityCode":"023","Name":"秀山土家族苗族自治县","ShortName":"秀山","MergerName":"重庆,秀山","Pinyin":"XiuShan","Lng":"109.007094","Lat":"28.447997"},"重庆,綦江":{"ID":"535629","ParentID":"533329","Level":"2","AreaCode":"500110000000","ZipCode":"400803","CityCode":"023","Name":"綦江区","ShortName":"綦江","MergerName":"重庆,綦江","Pinyin":"QiJiang","Lng":"106.651362","Lat":"29.028067"},"重庆,荣昌":{"ID":"539942","ParentID":"533329","Level":"2","AreaCode":"500153000000","ZipCode":"402473","CityCode":"023","Name":"荣昌区","ShortName":"荣昌","MergerName":"重庆,荣昌","Pinyin":"RongChang","Lng":"105.594623","Lat":"29.405002"},"重庆,酉阳":{"ID":"544878","ParentID":"540700","Level":"2","AreaCode":"500242000000","ZipCode":"409800","CityCode":"023","Name":"酉阳土家族苗族自治县","ShortName":"酉阳","MergerName":"重庆,酉阳","Pinyin":"YouYang","Lng":"108.767747","Lat":"28.841244"},"重庆,铜梁":{"ID":"539260","ParentID":"533329","Level":"2","AreaCode":"500151000000","ZipCode":"402560","CityCode":"023","Name":"铜梁区","ShortName":"铜梁","MergerName":"重庆,铜梁","Pinyin":"TongLiang","Lng":"106.056404","Lat":"29.844811"},"重庆,长寿":{"ID":"537461","ParentID":"533329","Level":"2","AreaCode":"500115000000","ZipCode":"401220","CityCode":"023","Name":"长寿区","ShortName":"长寿","MergerName":"重庆,长寿","Pinyin":"ChangShou","Lng":"107.081283","Lat":"29.857996"},"重庆,黔江":{"ID":"537212","ParentID":"533329","Level":"2","AreaCode":"500114000000","ZipCode":"409000","CityCode":"023","Name":"黔江区","ShortName":"黔江","MergerName":"重庆,黔江","Pinyin":"QianJiang","Lng":"108.770678","Lat":"29.533610"},"陕西":{"ID":"646578","ParentID":"0","Level":"0","AreaCode":"610000000000","ZipCode":"000000","CityCode":"","Name":"陕西省","ShortName":"陕西","MergerName":"陕西","Pinyin":"ShanXi","Lng":"108.954239","Lat":"34.265472"},"陕西,咸阳":{"ID":"652582","ParentID":"652581","Level":"2","AreaCode":"610401000000","ZipCode":"712000","CityCode":"0910","Name":"市辖区","ShortName":"咸阳","MergerName":"陕西,咸阳","Pinyin":"XianYang","Lng":"108.708991","Lat":"34.329605"},"陕西,商洛":{"ID":"669708","ParentID":"669707","Level":"2","AreaCode":"611001000000","ZipCode":"726000","CityCode":"0914","Name":"市辖区","ShortName":"商洛","MergerName":"陕西,商洛","Pinyin":"ShangLuo","Lng":"109.940477","Lat":"33.870422"},"陕西,安康":{"ID":"667682","ParentID":"667681","Level":"2","AreaCode":"610901000000","ZipCode":"725000","CityCode":"0915","Name":"市辖区","ShortName":"安康","MergerName":"陕西,安康","Pinyin":"AnKang","Lng":"109.029022","Lat":"32.684714"},"陕西,宝鸡":{"ID":"650576","ParentID":"650575","Level":"2","AreaCode":"610301000000","ZipCode":"721000","CityCode":"0917","Name":"市辖区","ShortName":"宝鸡","MergerName":"陕西,宝鸡","Pinyin":"BaoJi","Lng":"107.237974","Lat":"34.361979"},"陕西,延安":{"ID":"657849","ParentID":"657848","Level":"2","AreaCode":"610601000000","ZipCode":"716000","CityCode":"0911","Name":"市辖区","ShortName":"延安","MergerName":"陕西,延安","Pinyin":"YanAn","Lng":"109.489727","Lat":"36.585455"},"陕西,榆林":{"ID":"663047","ParentID":"663046","Level":"2","AreaCode":"610801000000","ZipCode":"719000","CityCode":"0912","Name":"市辖区","ShortName":"榆林","MergerName":"陕西,榆林","Pinyin":"YuLin","Lng":"109.734589","Lat":"38.285390"},"陕西,汉中":{"ID":"660644","ParentID":"660643","Level":"2","AreaCode":"610701000000","ZipCode":"723000","CityCode":"0916","Name":"市辖区","ShortName":"汉中","MergerName":"陕西,汉中","Pinyin":"HanZhong","Lng":"107.023323","Lat":"33.067480"},"陕西,渭南":{"ID":"655296","ParentID":"655295","Level":"2","AreaCode":"610501000000","ZipCode":"714000","CityCode":"0913","Name":"市辖区","ShortName":"渭南","MergerName":"陕西,渭南","Pinyin":"WeiNan","Lng":"109.509786","Lat":"34.499995"},"陕西,西安":{"ID":"646580","ParentID":"646579","Level":"2","AreaCode":"610101000000","ZipCode":"710000","CityCode":"029","Name":"市辖区","ShortName":"西安","MergerName":"陕西,西安","Pinyin":"XiAn","Lng":"108.940174","Lat":"34.341568"},"陕西,铜川":{"ID":"649980","ParentID":"649979","Level":"2","AreaCode":"610201000000","ZipCode":"727000","CityCode":"0919","Name":"市辖区","ShortName":"铜川","MergerName":"陕西,铜川","Pinyin":"TongChuan","Lng":"108.945233","Lat":"34.896756"},"青海":{"ID":"690094","ParentID":"0","Level":"0","AreaCode":"630000000000","ZipCode":"000000","CityCode":"","Name":"青海省","ShortName":"青海","MergerName":"青海","Pinyin":"QingHai","Lng":"101.780199","Lat":"36.620901"},"青海,果洛":{"ID":"694220","ParentID":"690094","Level":"1","AreaCode":"632600000000","ZipCode":"814000","CityCode":"0975","Name":"果洛藏族自治州","ShortName":"果洛","MergerName":"青海,果洛","Pinyin":"GuoLuo","Lng":"100.244808","Lat":"34.471431"},"青海,海东":{"ID":"691278","ParentID":"690094","Level":"1","AreaCode":"630200000000","ZipCode":"814000","CityCode":"0972","Name":"海东市","ShortName":"海东","MergerName":"青海,海东","Pinyin":"HaiDong","Lng":"102.104287","Lat":"36.502039"},"青海,海北":{"ID":"693040","ParentID":"690094","Level":"1","AreaCode":"632200000000","ZipCode":"812200","CityCode":"0970","Name":"海北藏族自治州","ShortName":"海北","MergerName":"青海,海北","Pinyin":"HaiBei","Lng":"100.900997","Lat":"36.954413"},"青海,海南":{"ID":"693672","ParentID":"690094","Level":"1","AreaCode":"632500000000","ZipCode":"813000","CityCode":"0974","Name":"海南藏族自治州","ShortName":"海南","MergerName":"青海,海南","Pinyin":"HaiNan","Lng":"101.780199","Lat":"36.620901"},"青海,海西":{"ID":"694846","ParentID":"690094","Level":"1","AreaCode":"632800000000","ZipCode":"817000","CityCode":"0977","Name":"海西蒙古族藏族自治州","ShortName":"海西","MergerName":"青海,海西","Pinyin":"HaiXi","Lng":"97.369751","Lat":"37.377139"},"青海,玉树":{"ID":"694478","ParentID":"690094","Level":"1","AreaCode":"632700000000","ZipCode":"815000","CityCode":"0976","Name":"玉树藏族自治州","ShortName":"玉树","MergerName":"青海,玉树","Pinyin":"YuShu","Lng":"97.091934","Lat":"33.011674"},"青海,西宁":{"ID":"690096","ParentID":"690095","Level":"2","AreaCode":"630101000000","ZipCode":"810000","CityCode":"0971","Name":"市辖区","ShortName":"西宁","MergerName":"青海,西宁","Pinyin":"XiNing","Lng":"101.778228","Lat":"36.617144"},"青海,黄南":{"ID":"693342","ParentID":"690094","Level":"1","AreaCode":"632300000000","ZipCode":"811300","CityCode":"0973","Name":"黄南藏族自治州","ShortName":"黄南","MergerName":"青海,黄南","Pinyin":"HuangNan","Lng":"102.015248","Lat":"35.519548"},"香港":{"ID":"714368","ParentID":"0","Level":"0","AreaCode":"0","ZipCode":"999077","CityCode":"00852","Name":"香港特别行政区","ShortName":"香港","MergerName":"香港","Pinyin":"Hong Kong","Lng":"114.173355","Lat":"22.320048"},"香港,九龙":{"ID":"714374","ParentID":"714368","Level":"1","AreaCode":"0","ZipCode":"999077","CityCode":"00852","Name":"九龙","ShortName":"九龙","MergerName":"香港,九龙","Pinyin":"Kowloon","Lng":"114.174950","Lat":"22.327115"},"香港,新界":{"ID":"714380","ParentID":"714368","Level":"1","AreaCode":"0","ZipCode":"999077","CityCode":"00852","Name":"新界","ShortName":"新界","MergerName":"香港,新界","Pinyin":"New Territories","Lng":"114.202408","Lat":"22.341766"},"香港,香港岛":{"ID":"714369","ParentID":"714368","Level":"1","AreaCode":"0","ZipCode":"999077","CityCode":"00852","Name":"香港岛","ShortName":"香港岛","MergerName":"香港,香港岛","Pinyin":"Hong Kong Island","Lng":"114.177314","Lat":"22.266416"},"黑龙江":{"ID":"145665","ParentID":"0","Level":"0","AreaCode":"230000000000","ZipCode":"000000","CityCode":"","Name":"黑龙江省","ShortName":"黑龙江","MergerName":"黑龙江","Pinyin":"HeiLongJiang","Lng":"126.661669","Lat":"45.742347"},"黑龙江,七台河":{"ID":"156714","ParentID":"156713","Level":"2","AreaCode":"230901000000","ZipCode":"154600","CityCode":"0464","Name":"市辖区","ShortName":"七台河","MergerName":"黑龙江,七台河","Pinyin":"QiTaiHe","Lng":"131.003138","Lat":"45.771726"},"黑龙江,伊春":{"ID":"154202","ParentID":"154201","Level":"2","AreaCode":"230701000000","ZipCode":"153000","CityCode":"0458","Name":"市辖区","ShortName":"伊春","MergerName":"黑龙江,伊春","Pinyin":"YiChun","Lng":"128.841147","Lat":"47.727536"},"黑龙江,佳木斯":{"ID":"155077","ParentID":"155076","Level":"2","AreaCode":"230801000000","ZipCode":"154000","CityCode":"0454","Name":"市辖区","ShortName":"佳木斯","MergerName":"黑龙江,佳木斯","Pinyin":"JiaMuSi","Lng":"130.318917","Lat":"46.799922"},"黑龙江,双鸭山":{"ID":"152414","ParentID":"152413","Level":"2","AreaCode":"230501000000","ZipCode":"155100","CityCode":"0469","Name":"市辖区","ShortName":"双鸭山","MergerName":"黑龙江,双鸭山","Pinyin":"ShuangYaShan","Lng":"131.159133","Lat":"46.646508"},"黑龙江,哈尔滨":{"ID":"145667","ParentID":"145666","Level":"2","AreaCode":"230101000000","ZipCode":"150000","CityCode":"0451","Name":"市辖区","ShortName":"哈尔滨","MergerName":"黑龙江,哈尔滨","Pinyin":"HaErBin","Lng":"126.534967","Lat":"45.803775"},"黑龙江,大兴安岭":{"ID":"161651","ParentID":"145665","Level":"1","AreaCode":"232700000000","ZipCode":"165000","CityCode":"0457","Name":"大兴安岭地区","ShortName":"大兴安岭","MergerName":"黑龙江,大兴安岭","Pinyin":"DaXingAnLing","Lng":"124.711080","Lat":"52.335206"},"黑龙江,大庆":{"ID":"153314","ParentID":"153313","Level":"2","AreaCode":"230601000000","ZipCode":"163000","CityCode":"0459","Name":"市辖区","ShortName":"大庆","MergerName":"黑龙江,大庆","Pinyin":"DaQing","Lng":"125.103784","Lat":"46.589309"},"黑龙江,牡丹江":{"ID":"157131","ParentID":"157130","Level":"2","AreaCode":"231001000000","ZipCode":"157000","CityCode":"0453","Name":"市辖区","ShortName":"牡丹江","MergerName":"黑龙江,牡丹江","Pinyin":"MuDanJiang","Lng":"129.633168","Lat":"44.551653"},"黑龙江,绥化":{"ID":"159770","ParentID":"159769","Level":"2","AreaCode":"231201000000","ZipCode":"152000","CityCode":"0455","Name":"市辖区","ShortName":"绥化","MergerName":"黑龙江,绥化","Pinyin":"SuiHua","Lng":"126.968887","Lat":"46.653845"},"黑龙江,鸡西":{"ID":"150916","ParentID":"150915","Level":"2","AreaCode":"230301000000","ZipCode":"158100","CityCode":"0467","Name":"市辖区","ShortName":"鸡西","MergerName":"黑龙江,鸡西","Pinyin":"JiXi","Lng":"130.969333","Lat":"45.295075"},"黑龙江,鹤岗":{"ID":"151831","ParentID":"151830","Level":"2","AreaCode":"230401000000","ZipCode":"154100","CityCode":"0468","Name":"市辖区","ShortName":"鹤岗","MergerName":"黑龙江,鹤岗","Pinyin":"HeGang","Lng":"130.297964","Lat":"47.349916"},"黑龙江,黑河":{"ID":"158624","ParentID":"158623","Level":"2","AreaCode":"231101000000","ZipCode":"164300","CityCode":"0456","Name":"市辖区","ShortName":"黑河","MergerName":"黑龙江,黑河","Pinyin":"HeiHe","Lng":"127.528560","Lat":"50.245329"},"黑龙江,齐齐哈尔":{"ID":"149080","ParentID":"149079","Level":"2","AreaCode":"230201000000","ZipCode":"161000","CityCode":"0452","Name":"市辖区","ShortName":"齐齐哈尔","MergerName":"黑龙江,齐齐哈尔","Pinyin":"QiQiHaEr","Lng":"123.918186","Lat":"47.354348"}}